{
  "code": "BF",
  "name": "Burkina Faso",
  "cities": {
    "Centre": {
      "plane": [],
      "train": [
        {
          "code": "OSM:4070738459",
          "name": "Gare de Beréba",
          "lat": 11.632819,
          "lng": -3.6720784
        }
      ],
      "bus": [
        {
          "code": "OSM:5982196278",
          "name": "Air Namendé",
          "lat": 12.37963,
          "lng": -1.5113229
        },
        {
          "code": "OSM:5817742865",
          "name": "Ancien SOGEBAF",
          "lat": 12.358842,
          "lng": -1.5433417
        },
        {
          "code": "OSM:435409734",
          "name": "Autogare",
          "lat": 12.242084,
          "lng": -0.4338901
        },
        {
          "code": "OSM:8196337718",
          "name": "Bagage",
          "lat": 12.3865374,
          "lng": -1.5628203
        },
        {
          "code": "OSM:5817794842",
          "name": "CTROF",
          "lat": 12.3768621,
          "lng": -1.5437628
        },
        {
          "code": "OSM:7059750287",
          "name": "CTROF",
          "lat": 11.1842018,
          "lng": -4.2880822
        },
        {
          "code": "OSM:5902354120",
          "name": "Gare 3STV Niger",
          "lat": 12.3794335,
          "lng": -1.5247903
        },
        {
          "code": "OSM:4139127430",
          "name": "GARE ROUTIERE",
          "lat": 12.4590095,
          "lng": -3.4576976
        },
        {
          "code": "OSM:4014925527",
          "name": "gare Routière",
          "lat": 12.0887442,
          "lng": -3.6717894
        },
        {
          "code": "OSM:647291807",
          "name": "Gare routière",
          "lat": 11.7465987,
          "lng": -2.9319717
        },
        {
          "code": "OSM:2526576549",
          "name": "Gare routière",
          "lat": 13.5592381,
          "lng": -2.4104601
        },
        {
          "code": "OSM:5818732822",
          "name": "Gare routière",
          "lat": 11.1197635,
          "lng": -0.0051136
        },
        {
          "code": "OSM:6293333969",
          "name": "Gare routière",
          "lat": 10.5286398,
          "lng": -5.410782
        },
        {
          "code": "OSM:9348805220",
          "name": "Gare routière",
          "lat": 11.8500847,
          "lng": -3.7598811
        },
        {
          "code": "OSM:60149555",
          "name": "Gare Routière",
          "lat": 10.9734061,
          "lng": -3.250835
        },
        {
          "code": "OSM:5902336067",
          "name": "Gare SONEF",
          "lat": 12.3769394,
          "lng": -1.5239292
        },
        {
          "code": "OSM:376415830",
          "name": "Gare TKF",
          "lat": 13.0719944,
          "lng": -3.0667965
        },
        {
          "code": "OSM:6123473285",
          "name": "Gare TSR",
          "lat": 12.1810717,
          "lng": -0.3546301
        },
        {
          "code": "OSM:3404523461",
          "name": "Rakieta Laarlé",
          "lat": 12.3747693,
          "lng": -1.5407544
        },
        {
          "code": "OSM:5982196277",
          "name": "STAF Sankariaré",
          "lat": 12.3799784,
          "lng": -1.527286
        },
        {
          "code": "OSM:5974705189",
          "name": "STM Niger",
          "lat": 12.3766155,
          "lng": -1.5219978
        },
        {
          "code": "OSM:5843071046",
          "name": "TCV Bobo",
          "lat": 11.1790971,
          "lng": -4.2991457
        },
        {
          "code": "OSM:3460151947",
          "name": "TCV ZACA",
          "lat": 12.3537703,
          "lng": -1.5199959
        },
        {
          "code": "OSM:5818406301",
          "name": "TCV ZAD",
          "lat": 12.3363374,
          "lng": -1.4994675
        },
        {
          "code": "OSM:10053026926",
          "name": "TSR wemtenga",
          "lat": 12.3754181,
          "lng": -1.4854547
        },
        {
          "code": "OSM:5817741931",
          "name": "TZJTPW",
          "lat": 12.3588682,
          "lng": -1.5443543
        }
      ]
    },
    "Hauts-Bassins": {
      "plane": [],
      "train": [
        {
          "code": "OSM:4069938214",
          "name": "Gare de Dafinso",
          "lat": 11.254637,
          "lng": -4.2266143
        },
        {
          "code": "OSM:4069969721",
          "name": "Gare de Dorrossiamasso",
          "lat": 11.42251,
          "lng": -3.9821286
        }
      ],
      "bus": [
        {
          "code": "OSM:5820206143",
          "name": "Farafina Tours Trans Pissy",
          "lat": 12.3427714,
          "lng": -1.5707338
        },
        {
          "code": "OSM:8300986120",
          "name": "Garage Tatiana",
          "lat": 12.385859,
          "lng": -1.5751384
        },
        {
          "code": "OSM:5820208328",
          "name": "Gare de Pissy Minibus",
          "lat": 12.3425854,
          "lng": -1.5718214
        },
        {
          "code": "OSM:5321789524",
          "name": "Jean commission",
          "lat": 12.3620482,
          "lng": -1.5192876
        },
        {
          "code": "OSM:5817695841",
          "name": "Kalsaka Transport",
          "lat": 12.3780417,
          "lng": -1.5514688
        },
        {
          "code": "OSM:5818406300",
          "name": "Rahimo Kalgondin",
          "lat": 12.3425317,
          "lng": -1.5064292
        },
        {
          "code": "OSM:5416625546",
          "name": "Rakieta Pissy",
          "lat": 12.3419456,
          "lng": -1.5671646
        },
        {
          "code": "OSM:5817817421",
          "name": "Saramaya Transport",
          "lat": 12.3510839,
          "lng": -1.556388
        },
        {
          "code": "OSM:9293279208",
          "name": "Saramaya Transport",
          "lat": 12.3757495,
          "lng": -1.4766526
        },
        {
          "code": "OSM:6338303885",
          "name": "SARAMAYA TRANSPORT",
          "lat": 11.1844037,
          "lng": -4.2896564
        },
        {
          "code": "OSM:5982196388",
          "name": "STAF de Dassasgho",
          "lat": 12.3903213,
          "lng": -1.4769289
        },
        {
          "code": "OSM:6151799617",
          "name": "Transport Sana Rasmané",
          "lat": 12.4584833,
          "lng": -3.4576637
        },
        {
          "code": "OSM:357506526",
          "name": "Transport Sana Rasmané",
          "lat": 11.1632496,
          "lng": -4.3140635
        }
      ]
    },
    "Centre-Ouest": {
      "plane": [],
      "train": [
        {
          "code": "OSM:4066389527",
          "name": "Gare de Bérégadougou",
          "lat": 10.7738402,
          "lng": -4.7438811
        },
        {
          "code": "OSM:4069969722",
          "name": "Gare de Kouentou",
          "lat": 11.334981,
          "lng": -4.135269
        },
        {
          "code": "OSM:4065449449",
          "name": "Gare de Niangoloko",
          "lat": 10.2722269,
          "lng": -4.9149247
        }
      ],
      "bus": [
        {
          "code": "OSM:5266455917",
          "name": "Elitis express",
          "lat": 12.3523136,
          "lng": -1.4910933
        },
        {
          "code": "OSM:5021563321",
          "name": "future gare routière",
          "lat": 11.149734,
          "lng": -4.3195022
        },
        {
          "code": "OSM:8866357479",
          "name": "Gare de l'Ouest",
          "lat": 12.3360013,
          "lng": -1.5982871
        },
        {
          "code": "OSM:28068278",
          "name": "Gare Routière Ouaga-Inter",
          "lat": 12.3337737,
          "lng": -1.5162723
        },
        {
          "code": "OSM:6025218727",
          "name": "Gare staf de l'est",
          "lat": 12.3902591,
          "lng": -1.476996
        },
        {
          "code": "OSM:6346610006",
          "name": "Gare StaffGourcy",
          "lat": 13.2038633,
          "lng": -2.3577367
        },
        {
          "code": "OSM:5903624891",
          "name": "Gare Teel-Taaba",
          "lat": 12.3776153,
          "lng": -1.53395
        },
        {
          "code": "OSM:5817716231",
          "name": "Société de Transport Kiébléga et Frère",
          "lat": 12.3767062,
          "lng": -1.5497965
        },
        {
          "code": "OSM:5817712579",
          "name": "Société de Transport Tasséré et Frère",
          "lat": 12.3814298,
          "lng": -1.5520589
        },
        {
          "code": "OSM:4903923868",
          "name": "SONEF TRANSPORT VOYAGEUR",
          "lat": 12.37742,
          "lng": -1.5215434
        }
      ]
    },
    "Nord": {
      "plane": [],
      "train": [],
      "bus": [
        {
          "code": "OSM:5817745716",
          "name": "Air Rondo",
          "lat": 12.3734235,
          "lng": -1.5395209
        },
        {
          "code": "OSM:3404523444",
          "name": "Gaoua",
          "lat": 10.3580576,
          "lng": -3.180378
        },
        {
          "code": "OSM:1067825323",
          "name": "Gaoua",
          "lat": 10.3579667,
          "lng": -3.1804103
        },
        {
          "code": "OSM:5817729045",
          "name": "GT Molo Molo",
          "lat": 12.3764652,
          "lng": -1.5566441
        },
        {
          "code": "OSM:5820201473",
          "name": "Honda Pissy",
          "lat": 12.3432208,
          "lng": -1.5693297
        },
        {
          "code": "OSM:3260067001",
          "name": "OA",
          "lat": 13.0845267,
          "lng": -1.08509
        },
        {
          "code": "OSM:5818399511",
          "name": "TGR",
          "lat": 12.3637598,
          "lng": -1.519163
        },
        {
          "code": "OSM:6109354389",
          "name": "TOF",
          "lat": 12.3640759,
          "lng": -1.5230085
        },
        {
          "code": "OSM:5902254294",
          "name": "TSR Kaya",
          "lat": 12.3734785,
          "lng": -1.5226512
        }
      ]
    },
    "Centre-Nord": {
      "plane": [],
      "train": [
        {
          "code": "OSM:4066340120",
          "name": "Gare de Banfora",
          "lat": 10.6455946,
          "lng": -4.7632109
        }
      ],
      "bus": [
        {
          "code": "OSM:8278569117",
          "name": "2Ni Transport",
          "lat": 12.382652,
          "lng": -1.5224703
        },
        {
          "code": "OSM:5818403494",
          "name": "Colombe Start transport",
          "lat": 12.3553819,
          "lng": -1.5199468
        },
        {
          "code": "OSM:4972026221",
          "name": "Diarra transport",
          "lat": 11.1862041,
          "lng": -4.3031603
        },
        {
          "code": "OSM:5817722855",
          "name": "Farafina Transport",
          "lat": 12.3739501,
          "lng": -1.548161
        },
        {
          "code": "OSM:5818831962",
          "name": "Gare Bonheur Transport",
          "lat": 10.2799564,
          "lng": -4.9175566
        },
        {
          "code": "OSM:157856864",
          "name": "Gare Routière de Dori",
          "lat": 14.0324607,
          "lng": -0.0363882
        },
        {
          "code": "OSM:5874076509",
          "name": "Gare routière de Nouna",
          "lat": 12.7340365,
          "lng": -3.857831
        },
        {
          "code": "OSM:5902334784",
          "name": "Gare S.Z Transport",
          "lat": 12.3766656,
          "lng": -1.5246387
        },
        {
          "code": "OSM:5817735809",
          "name": "Jeunesse Transport",
          "lat": 12.3587588,
          "lng": -1.5448793
        },
        {
          "code": "OSM:5874549978",
          "name": "Nour Transport",
          "lat": 11.186685,
          "lng": -4.3016882
        },
        {
          "code": "OSM:5902331718",
          "name": "Nour Transport Voyage",
          "lat": 12.3770874,
          "lng": -1.5227075
        },
        {
          "code": "OSM:5451913430",
          "name": "Rakieta Patte d'oie",
          "lat": 12.3300902,
          "lng": -1.5263875
        },
        {
          "code": "OSM:7059749986",
          "name": "Rimbo Agence de Dori",
          "lat": 14.0341494,
          "lng": -0.0294568
        },
        {
          "code": "OSM:5817725093",
          "name": "Sadja Transport",
          "lat": 12.3719118,
          "lng": -1.556451
        },
        {
          "code": "OSM:5842991159",
          "name": "Sidibe transport",
          "lat": 11.1863422,
          "lng": -4.2992261
        },
        {
          "code": "OSM:5817707705",
          "name": "Société de Transport Nord Faso",
          "lat": 12.3778681,
          "lng": -1.550974
        },
        {
          "code": "OSM:5818492882",
          "name": "TSR Patte d'oie",
          "lat": 12.3299281,
          "lng": -1.5276723
        }
      ]
    },
    "Cascades": {
      "plane": [],
      "train": [
        {
          "code": "OSM:4078507396",
          "name": "Gare de Bingo",
          "lat": 12.2983728,
          "lng": -1.8113399
        },
        {
          "code": "OSM:4067840153",
          "name": "Gare de Darsalamy",
          "lat": 11.0356151,
          "lng": -4.3503826
        },
        {
          "code": "OSM:4095537609",
          "name": "Gare de Kaya",
          "lat": 13.0915522,
          "lng": -1.0750421
        },
        {
          "code": "OSM:4070738461",
          "name": "Gare de Maro",
          "lat": 11.5332907,
          "lng": -3.7994713
        },
        {
          "code": "OSM:4072635062",
          "name": "Gare de Pompoï",
          "lat": 11.8280901,
          "lng": -3.2081287
        },
        {
          "code": "OSM:4078507399",
          "name": "Gare de Saria",
          "lat": 12.2587323,
          "lng": -2.0867001
        },
        {
          "code": "OSM:4073233826",
          "name": "Gare de Siby",
          "lat": 11.8542341,
          "lng": -2.9776785
        },
        {
          "code": "OSM:4073233827",
          "name": "Gare de Zamo",
          "lat": 12.0131816,
          "lng": -2.7097929
        },
        {
          "code": "OSM:4095418919",
          "name": "Gare de Zitenga",
          "lat": 12.7609221,
          "lng": -1.2965195
        }
      ],
      "bus": [
        {
          "code": "OSM:7059750285",
          "name": "Al Izza Voyageurs",
          "lat": 12.3782289,
          "lng": -1.5234493
        },
        {
          "code": "OSM:3325171531",
          "name": "Gare de Dano",
          "lat": 11.1512363,
          "lng": -3.0611034
        },
        {
          "code": "OSM:5902325840",
          "name": "Gare de OA de Kaya",
          "lat": 12.3743614,
          "lng": -1.5228228
        },
        {
          "code": "OSM:6047839785",
          "name": "Gare de staf",
          "lat": 13.2038908,
          "lng": -2.3584255
        },
        {
          "code": "OSM:545202499",
          "name": "Gare Principale de Fada",
          "lat": 12.0618375,
          "lng": 0.3820735
        },
        {
          "code": "OSM:4465438289",
          "name": "GARE RAHIMO",
          "lat": 11.1692668,
          "lng": -4.3068561
        },
        {
          "code": "OSM:3743424430",
          "name": "Gare Rakieta",
          "lat": 11.1768477,
          "lng": -4.3034316
        },
        {
          "code": "OSM:5819934113",
          "name": "Gare Rakieta",
          "lat": 10.2806809,
          "lng": -4.9172931
        },
        {
          "code": "OSM:9976711932",
          "name": "Gare Rakiéta",
          "lat": 13.5687288,
          "lng": -2.4249076
        },
        {
          "code": "OSM:5985096979",
          "name": "Gare STAF TP",
          "lat": 12.3560084,
          "lng": -1.5354091
        },
        {
          "code": "OSM:6937112155",
          "name": "Rahimo Pissy",
          "lat": 12.3443683,
          "lng": -1.5685283
        },
        {
          "code": "OSM:5818406914",
          "name": "Rakieta ZAD",
          "lat": 12.3435811,
          "lng": -1.4953315
        },
        {
          "code": "OSM:7059750286",
          "name": "Rimbo Transport Voyageurs",
          "lat": 11.1841309,
          "lng": -4.2876991
        },
        {
          "code": "OSM:5818403495",
          "name": "Star ZOKAS",
          "lat": 12.355319,
          "lng": -1.5201785
        }
      ]
    },
    "Centre-Est": {
      "plane": [],
      "train": [],
      "bus": [
        {
          "code": "OSM:3443662062",
          "name": "GARE ROUTIERE DE YAKO",
          "lat": 12.9594581,
          "lng": -2.2556448
        },
        {
          "code": "OSM:6374005885",
          "name": "Gare routière de Lah",
          "lat": 12.0710806,
          "lng": -3.507167
        },
        {
          "code": "OSM:6909333608",
          "name": "Gare Routière de Léo",
          "lat": 11.0979137,
          "lng": -2.1072691
        },
        {
          "code": "OSM:7061825259",
          "name": "Gare routière STAF",
          "lat": 11.1024625,
          "lng": -2.09988
        },
        {
          "code": "OSM:647225514",
          "name": "Gare routière TCV",
          "lat": 11.1793441,
          "lng": -4.2991977
        },
        {
          "code": "OSM:3099872483",
          "name": "Gare TSR Wem-Tenga",
          "lat": 12.3753059,
          "lng": -1.4855719
        }
      ]
    },
    "Est": {
      "plane": [],
      "train": [],
      "bus": [
        {
          "code": "OSM:5817801916",
          "name": "FTS",
          "lat": 12.3524948,
          "lng": -1.5560326
        },
        {
          "code": "OSM:7092976785",
          "name": "FTS",
          "lat": 11.1840018,
          "lng": -4.3072139
        },
        {
          "code": "OSM:9358434498",
          "name": "Gare Staf",
          "lat": 12.3899392,
          "lng": -1.5874108
        },
        {
          "code": "OSM:3643380423",
          "name": "Gare STAF",
          "lat": 12.368433,
          "lng": -1.5255447
        },
        {
          "code": "OSM:5819934115",
          "name": "Gare STAF",
          "lat": 10.284976,
          "lng": -4.9112454
        },
        {
          "code": "OSM:6981544507",
          "name": "Gare STAF",
          "lat": 12.7356167,
          "lng": -3.8595432
        },
        {
          "code": "OSM:10027587454",
          "name": "Gare STAF",
          "lat": 12.9591495,
          "lng": -2.2561146
        },
        {
          "code": "OSM:11039907864",
          "name": "Gare STAF",
          "lat": 13.2038194,
          "lng": -2.3578369
        },
        {
          "code": "OSM:5902329753",
          "name": "Gare STKK",
          "lat": 12.3759517,
          "lng": -1.5210459
        },
        {
          "code": "OSM:339870573",
          "name": "IDM",
          "lat": 12.0614589,
          "lng": 0.3608094
        },
        {
          "code": "OSM:5817800068",
          "name": "SITO",
          "lat": 12.3515228,
          "lng": -1.5451495
        },
        {
          "code": "OSM:5817788859",
          "name": "SKI",
          "lat": 12.3750426,
          "lng": -1.5416479
        },
        {
          "code": "OSM:2946523829",
          "name": "Staf",
          "lat": 11.1869898,
          "lng": -4.3029477
        },
        {
          "code": "OSM:1956876591",
          "name": "STAF",
          "lat": 12.0607963,
          "lng": 0.3628341
        },
        {
          "code": "OSM:5451865943",
          "name": "STAF",
          "lat": 10.6440638,
          "lng": -4.7630284
        },
        {
          "code": "OSM:5451865944",
          "name": "STAF",
          "lat": 12.4619818,
          "lng": -3.4602074
        },
        {
          "code": "OSM:5971099786",
          "name": "STAF",
          "lat": 13.5784783,
          "lng": -2.4185367
        },
        {
          "code": "OSM:5937020836",
          "name": "STKB",
          "lat": 12.3897293,
          "lng": -1.5897614
        },
        {
          "code": "OSM:5818399477",
          "name": "STS",
          "lat": 12.3636579,
          "lng": -1.5333036
        },
        {
          "code": "OSM:5817926147",
          "name": "TAF",
          "lat": 12.3765883,
          "lng": -1.5567836
        },
        {
          "code": "OSM:5817813306",
          "name": "TBB",
          "lat": 12.3721371,
          "lng": -1.5577237
        },
        {
          "code": "OSM:5817788386",
          "name": "TBF",
          "lat": 12.3764783,
          "lng": -1.5430936
        },
        {
          "code": "OSM:5416626126",
          "name": "TCV",
          "lat": 11.17062,
          "lng": -4.2777562
        },
        {
          "code": "OSM:5787927153",
          "name": "TCV",
          "lat": 10.642624,
          "lng": -4.7608857
        },
        {
          "code": "OSM:3984037232",
          "name": "TKF",
          "lat": 12.3595717,
          "lng": -1.5352302
        },
        {
          "code": "OSM:1965089618",
          "name": "TSR",
          "lat": 12.0594031,
          "lng": 0.3604673
        },
        {
          "code": "OSM:3260067007",
          "name": "TSR",
          "lat": 13.0828886,
          "lng": -1.0855942
        },
        {
          "code": "OSM:4804845821",
          "name": "TSR",
          "lat": 13.0838997,
          "lng": -1.085704
        }
      ]
    },
    "Boucle du Mouhoun": {
      "plane": [],
      "train": [
        {
          "code": "OSM:4070759609",
          "name": "Gare de Bounou",
          "lat": 11.7651367,
          "lng": -3.3722328
        },
        {
          "code": "OSM:4065449448",
          "name": "Gare de Diarrabakoko",
          "lat": 10.4706873,
          "lng": -4.78367
        },
        {
          "code": "OSM:4078507397",
          "name": "Gare de Koudougou",
          "lat": 12.2483167,
          "lng": -2.3624065
        },
        {
          "code": "OSM:4078507398",
          "name": "Gare de Ouagadougou",
          "lat": 12.3736147,
          "lng": -1.5265665
        }
      ],
      "bus": [
        {
          "code": "OSM:5902254644",
          "name": "Gare de Pouytenga",
          "lat": 12.3737078,
          "lng": -1.5227236
        },
        {
          "code": "OSM:3741556218",
          "name": "Gare Principale de Diapaga",
          "lat": 12.0710832,
          "lng": 1.7827539
        },
        {
          "code": "OSM:362219792",
          "name": "gare routière de Kongoussi",
          "lat": 12.3942196,
          "lng": -1.5562469
        },
        {
          "code": "OSM:234865973",
          "name": "Gare routière de Koudougou",
          "lat": 12.2539617,
          "lng": -2.3495029
        },
        {
          "code": "OSM:343376267",
          "name": "Gare routière de Koudougou",
          "lat": 12.2495553,
          "lng": -2.3615557
        },
        {
          "code": "OSM:3508258819",
          "name": "Gare routière de Koupéla",
          "lat": 12.1790183,
          "lng": -0.3542712
        },
        {
          "code": "OSM:3406732593",
          "name": "Gare routière le Visionnaire",
          "lat": 12.3629929,
          "lng": -1.5310585
        },
        {
          "code": "OSM:231719357",
          "name": "ONATEL et SONAPOST Goughin",
          "lat": 12.3563803,
          "lng": -1.5490825
        },
        {
          "code": "OSM:5465396721",
          "name": "Rakieta Ouagadougou - Po",
          "lat": 12.3603706,
          "lng": -1.5221516
        },
        {
          "code": "OSM:5817736030",
          "name": "Société Bonkoungou",
          "lat": 12.3577874,
          "lng": -1.546602
        },
        {
          "code": "OSM:5817731202",
          "name": "Transport Guibougou Rasmané",
          "lat": 12.3580494,
          "lng": -1.5476286
        }
      ]
    },
    "Sahel": {
      "plane": [],
      "train": [],
      "bus": [
        {
          "code": "OSM:2271670712",
          "name": "Bus terminal",
          "lat": 13.5794445,
          "lng": -2.4225555
        },
        {
          "code": "OSM:610043867",
          "name": "Gare Houcée",
          "lat": 11.0800178,
          "lng": -5.3098223
        },
        {
          "code": "OSM:5902355155",
          "name": "Gare Olympia Car",
          "lat": 12.380224,
          "lng": -1.5227947
        },
        {
          "code": "OSM:5982214848",
          "name": "Gare Sahel Voyage",
          "lat": 12.3808954,
          "lng": -1.5265283
        },
        {
          "code": "OSM:7077942385",
          "name": "Rahimo",
          "lat": 12.3423817,
          "lng": -1.5062364
        },
        {
          "code": "OSM:562466593",
          "name": "Rahimo",
          "lat": 10.6382506,
          "lng": -4.7528689
        },
        {
          "code": "OSM:3710588259",
          "name": "Rakieta",
          "lat": 12.0615024,
          "lng": 0.3616402
        },
        {
          "code": "OSM:5416626628",
          "name": "Rakieta",
          "lat": 11.171251,
          "lng": -4.2657768
        },
        {
          "code": "OSM:5451865946",
          "name": "Rakieta",
          "lat": 12.360356,
          "lng": -1.5220463
        },
        {
          "code": "OSM:5451865947",
          "name": "Rakieta",
          "lat": 11.1673046,
          "lng": -1.145834
        },
        {
          "code": "OSM:545020726",
          "name": "Rakieta",
          "lat": 12.0615992,
          "lng": 0.3615386
        },
        {
          "code": "OSM:3760206613",
          "name": "Rakiéta",
          "lat": 10.6421128,
          "lng": -4.7605829
        },
        {
          "code": "OSM:5817745358",
          "name": "STAFF Laarlé",
          "lat": 12.3727685,
          "lng": -1.5376005
        }
      ]
    },
    "Sud-Ouest": {
      "plane": [
        {
          "code": "BOY",
          "name": "Bobo Dioulasso Airport",
          "lat": 11.160099983215332,
          "lng": -4.33096981048584
        },
        {
          "code": "OUA",
          "name": "Ouagadougou Airport",
          "lat": 12.3532,
          "lng": -1.51242
        }
      ],
      "train": [
        {
          "code": "OSM:4069363273",
          "name": "Bobo-Dioulasso",
          "lat": 11.1782103,
          "lng": -4.3067826
        }
      ],
      "bus": [
        {
          "code": "OSM:9498983553",
          "name": "Burkindi voyage express",
          "lat": 12.3799886,
          "lng": -1.5153098
        },
        {
          "code": "OSM:3507624864",
          "name": "TSR Gounghin",
          "lat": 12.3568467,
          "lng": -1.5486901
        }
      ]
    },
    "Centre-Sud": {
      "plane": [],
      "train": [],
      "bus": []
    },
    "Plateau-Central": {
      "plane": [],
      "train": [
        {
          "code": "OSM:4070738460",
          "name": "Gare de Grand Bale",
          "lat": 11.7451352,
          "lng": -3.5176771
        }
      ],
      "bus": []
    }
  },
  "meta": {
    "source": {
      "airports": "OurAirports (airports.csv, filtered: scheduled_service=yes, civil)",
      "train": "OpenStreetMap (railway=station/public_transport=station train=yes)",
      "bus": "OpenStreetMap (amenity=bus_station/public_transport=station bus=yes)"
    },
    "generatedAt": "2025-09-02T08:29:36.906Z"
  }
}