{
  "code": "FJ",
  "name": "Fiji",
  "cities": {
    "Rewa": {
      "plane": [
        {
          "code": "ICI",
          "name": "Cicia Airport",
          "lat": -17.7432994843,
          "lng": -179.341995239
        },
        {
          "code": "KXF",
          "name": "Koro Island Airport",
          "lat": -17.3458003998,
          "lng": 179.42199707
        },
        {
          "code": "LEV",
          "name": "Levuka Airfield",
          "lat": -17.7110996246,
          "lng": 178.759002686
        },
        {
          "code": "MFJ",
          "name": "Moala Airport",
          "lat": -18.566699981699998,
          "lng": 179.951004028
        },
        {
          "code": "RTA",
          "name": "Rotuma Airport",
          "lat": -12.482500076293945,
          "lng": 177.0709991455078
        },
        {
          "code": "KDV",
          "name": "Vunisea Airport",
          "lat": -19.058099746699998,
          "lng": 178.156997681
        }
      ],
      "train": [],
      "bus": []
    },
    "Ba": {
      "plane": [
        {
          "code": "LBS",
          "name": "Labasa Airport",
          "lat": -16.4667,
          "lng": 179.339996
        },
        {
          "code": "TVU",
          "name": "Matei Airport",
          "lat": -16.690599,
          "lng": -179.876999
        },
        {
          "code": "NAN",
          "name": "Nadi International Airport",
          "lat": -17.755399703979492,
          "lng": 177.4429931640625
        },
        {
          "code": "NGI",
          "name": "Ngau Airport",
          "lat": -18.115600585899998,
          "lng": 179.339996338
        }
      ],
      "train": [],
      "bus": []
    },
    "Tailevu": {
      "plane": [
        {
          "code": "LKB",
          "name": "Lakeba Island Airport",
          "lat": -18.1991996765,
          "lng": -178.817001343
        },
        {
          "code": "MNF",
          "name": "Mana Island Airport",
          "lat": -17.672844,
          "lng": 177.0985
        },
        {
          "code": "SVU",
          "name": "Savusavu Airport",
          "lat": -16.803394,
          "lng": 179.340587
        },
        {
          "code": "VBV",
          "name": "Vanua Balavu Airport",
          "lat": -17.268999099731445,
          "lng": -178.9759979248047
        },
        {
          "code": "YAS",
          "name": "Yasawa Island Airport",
          "lat": -16.7589,
          "lng": 177.544998
        }
      ],
      "train": [],
      "bus": []
    },
    "Macuata": {
      "plane": [
        {
          "code": "PTF",
          "name": "Malolo Lailai Island Airport",
          "lat": -17.778448,
          "lng": 177.196996
        }
      ],
      "train": [],
      "bus": []
    },
    "Naitasiri": {
      "plane": [
        {
          "code": "SUV",
          "name": "Nausori International Airport",
          "lat": -18.04330062866211,
          "lng": 178.5590057373047
        }
      ],
      "train": [],
      "bus": []
    },
    "Nadroga and Navosa": {
      "plane": [],
      "train": [],
      "bus": []
    }
  },
  "meta": {
    "source": {
      "airports": "OurAirports (airports.csv, filtered: scheduled_service=yes, civil)",
      "train": "OpenStreetMap (railway=station/public_transport=station train=yes)",
      "bus": "OpenStreetMap (amenity=bus_station/public_transport=station bus=yes)"
    },
    "generatedAt": "2025-09-02T08:48:53.618Z"
  }
}