{
  "code": "IN",
  "name": "India",
  "cities": {
    "Delhi": {
      "plane": [
        {
          "code": "AGX",
          "name": "Agatti Airport",
          "lat": 10.8237,
          "lng": 72.176003
        },
        {
          "code": "IXG",
          "name": "Belagavi Airport",
          "lat": 15.8593,
          "lng": 74.618301
        },
        {
          "code": "IXR",
          "name": "Birsa Munda Airport",
          "lat": 23.314300537100003,
          "lng": 85.3217010498
        },
        {
          "code": "MAA",
          "name": "Chennai International Airport",
          "lat": 12.990005,
          "lng": 80.169296
        },
        {
          "code": "COK",
          "name": "Cochin International Airport",
          "lat": 10.151047,
          "lng": 76.400838
        },
        {
          "code": "DGH",
          "name": "Deoghar Airport",
          "lat": 24.446842,
          "lng": 86.704955
        },
        {
          "code": "HBX",
          "name": "Hubli Airport",
          "lat": 15.3617,
          "lng": 75.0849
        },
        {
          "code": "HGI",
          "name": "Itanagar Donyi Polo Hollongi Airport",
          "lat": 26.96683,
          "lng": 93.638792
        },
        {
          "code": "IXJ",
          "name": "Jammu Airport",
          "lat": 32.688849,
          "lng": 74.838152
        },
        {
          "code": "IXK",
          "name": "Keshod Airport",
          "lat": 21.317101,
          "lng": 70.270401
        },
        {
          "code": "SDW",
          "name": "Sindhudurg Airport",
          "lat": 16.002552,
          "lng": 73.529846
        }
      ],
      "train": [
        {
          "code": "OSM:8999697085",
          "name": "Adalpahari",
          "lat": 24.208218,
          "lng": 87.709578
        },
        {
          "code": "OSM:4693475305",
          "name": "Adavali",
          "lat": 16.9215451,
          "lng": 73.5928085
        },
        {
          "code": "OSM:4838807292",
          "name": "Adihalli",
          "lat": 13.2961129,
          "lng": 76.3259959
        },
        {
          "code": "OSM:687033552",
          "name": "Adoni",
          "lat": 15.6176141,
          "lng": 77.2746943
        },
        {
          "code": "OSM:7512567895",
          "name": "Adurupalli",
          "lat": 14.2759272,
          "lng": 79.6133897
        },
        {
          "code": "OSM:6167541028",
          "name": "Agthori",
          "lat": 26.198642,
          "lng": 91.6860097
        },
        {
          "code": "OSM:2062209365",
          "name": "Ajanti",
          "lat": 21.8948814,
          "lng": 76.2861691
        },
        {
          "code": "OSM:297649087",
          "name": "Ajni",
          "lat": 21.1269226,
          "lng": 79.0825751
        },
        {
          "code": "OSM:9400884891",
          "name": "Akashi",
          "lat": 23.4047714,
          "lng": 84.8311388
        },
        {
          "code": "OSM:2144250121",
          "name": "Akividu",
          "lat": 16.5828319,
          "lng": 81.3691956
        },
        {
          "code": "OSM:1817376221",
          "name": "Akkurti",
          "lat": 13.7833371,
          "lng": 79.6691413
        },
        {
          "code": "OSM:6171411391",
          "name": "Akolner",
          "lat": 18.9839331,
          "lng": 74.6683185
        },
        {
          "code": "OSM:2432308802",
          "name": "Akurdi",
          "lat": 18.6486364,
          "lng": 73.764716
        },
        {
          "code": "OSM:1942486347",
          "name": "Alai",
          "lat": 27.3376197,
          "lng": 73.5851865
        },
        {
          "code": "OSM:1974699693",
          "name": "Aler",
          "lat": 17.645634,
          "lng": 79.0489037
        },
        {
          "code": "OSM:4337949741",
          "name": "Alewahi",
          "lat": 20.3643454,
          "lng": 79.7036229
        },
        {
          "code": "OSM:1945761446",
          "name": "Alniya",
          "lat": 25.0321836,
          "lng": 75.9090774
        },
        {
          "code": "OSM:4855254016",
          "name": "Alur",
          "lat": 12.9817317,
          "lng": 76.0004054
        },
        {
          "code": "OSM:7716649884",
          "name": "Amausi",
          "lat": 26.7742875,
          "lng": 80.8414257
        },
        {
          "code": "OSM:1225732184",
          "name": "Ambewadi",
          "lat": 15.2729107,
          "lng": 74.6174336
        },
        {
          "code": "OSM:784189320",
          "name": "Amethi",
          "lat": 26.1528737,
          "lng": 81.8061035
        },
        {
          "code": "OSM:1339610277",
          "name": "Amlai",
          "lat": 23.1730884,
          "lng": 81.5928891
        },
        {
          "code": "OSM:1946387850",
          "name": "Amli",
          "lat": 25.8281255,
          "lng": 76.2859431
        },
        {
          "code": "OSM:5033005889",
          "name": "Amlo",
          "lat": 23.7689018,
          "lng": 85.982189
        },
        {
          "code": "OSM:3684357942",
          "name": "Amoni",
          "lat": 26.4482495,
          "lng": 92.9198178
        },
        {
          "code": "OSM:1621473135",
          "name": "Amreli",
          "lat": 21.6078806,
          "lng": 71.2281152
        },
        {
          "code": "OSM:7579486012",
          "name": "Ancheli",
          "lat": 20.8450701,
          "lng": 72.9454102
        },
        {
          "code": "OSM:5696928866",
          "name": "Andheri",
          "lat": 19.1196976,
          "lng": 72.8464205
        },
        {
          "code": "OSM:3806743189",
          "name": "Antop Hill",
          "lat": 19.0302863,
          "lng": 72.8669592
        },
        {
          "code": "OSM:2185372254",
          "name": "Antri",
          "lat": 26.0356437,
          "lng": 78.2269532
        },
        {
          "code": "OSM:353002340",
          "name": "Aralvaymozhi",
          "lat": 8.2483557,
          "lng": 77.5279284
        },
        {
          "code": "OSM:2965547429",
          "name": "Aravalli",
          "lat": 16.6200076,
          "lng": 81.5987976
        },
        {
          "code": "OSM:4812294044",
          "name": "Areli",
          "lat": 28.0190183,
          "lng": 79.885622
        },
        {
          "code": "OSM:6358025865",
          "name": "Arkha",
          "lat": 25.8874962,
          "lng": 81.31372
        },
        {
          "code": "OSM:6129230131",
          "name": "Arvi",
          "lat": 20.9928709,
          "lng": 78.223256
        },
        {
          "code": "OSM:2267615629",
          "name": "Ataria",
          "lat": 27.1727241,
          "lng": 80.861014
        },
        {
          "code": "OSM:1737506328",
          "name": "Ateli",
          "lat": 28.1006591,
          "lng": 76.2535322
        },
        {
          "code": "OSM:2965547430",
          "name": "Attili",
          "lat": 16.6798013,
          "lng": 81.6161458
        },
        {
          "code": "OSM:8999697087",
          "name": "Aurahi",
          "lat": 25.823021,
          "lng": 87.135054
        },
        {
          "code": "OSM:3678939665",
          "name": "Avadi",
          "lat": 13.1182744,
          "lng": 80.1015427
        },
        {
          "code": "OSM:1341653089",
          "name": "Bacheli",
          "lat": 18.7038788,
          "lng": 81.2387081
        },
        {
          "code": "OSM:5768071768",
          "name": "Badkulla",
          "lat": 23.3055047,
          "lng": 88.5261261
        },
        {
          "code": "OSM:6210753025",
          "name": "Bagdihi",
          "lat": 21.9512688,
          "lng": 84.1868406
        },
        {
          "code": "OSM:5089496058",
          "name": "Bainchi",
          "lat": 23.1196627,
          "lng": 88.1967576
        },
        {
          "code": "OSM:2165989496",
          "name": "Bakhri",
          "lat": 25.5005349,
          "lng": 87.3109171
        },
        {
          "code": "OSM:7724618038",
          "name": "Bakudi",
          "lat": 24.9264213,
          "lng": 87.7806759
        },
        {
          "code": "OSM:1183396450",
          "name": "Bakulha",
          "lat": 25.7979298,
          "lng": 84.542628
        },
        {
          "code": "OSM:6161196783",
          "name": "Bale",
          "lat": 17.6763069,
          "lng": 75.8456129
        },
        {
          "code": "OSM:2548066542",
          "name": "Balli",
          "lat": 15.151774,
          "lng": 74.0211809
        },
        {
          "code": "OSM:763530839",
          "name": "Ballia",
          "lat": 25.759429,
          "lng": 84.1489095
        },
        {
          "code": "OSM:664467737",
          "name": "Bally",
          "lat": 22.6550647,
          "lng": 88.3403033
        },
        {
          "code": "OSM:8864158342",
          "name": "Balod",
          "lat": 20.7406872,
          "lng": 81.2050704
        },
        {
          "code": "OSM:8999686407",
          "name": "Balrai",
          "lat": 26.9207594,
          "lng": 78.8240289
        },
        {
          "code": "OSM:1472058820",
          "name": "Balwa",
          "lat": 21.8946209,
          "lng": 69.9542868
        },
        {
          "code": "OSM:10255269127",
          "name": "Bamhni",
          "lat": 20.922678,
          "lng": 79.3646285
        },
        {
          "code": "OSM:5455871147",
          "name": "Bamnia",
          "lat": 23.0949783,
          "lng": 74.7585421
        },
        {
          "code": "OSM:312814036",
          "name": "Banahi",
          "lat": 25.5613457,
          "lng": 84.3911004
        },
        {
          "code": "OSM:2525377488",
          "name": "Bandarupalli",
          "lat": 16.3653185,
          "lng": 80.3626712
        },
        {
          "code": "OSM:7576345799",
          "name": "Bandel Junction",
          "lat": 22.9236692,
          "lng": 88.3782855
        },
        {
          "code": "OSM:1151626026",
          "name": "Bani",
          "lat": 26.2332151,
          "lng": 81.6109566
        },
        {
          "code": "OSM:910326397",
          "name": "Bankhedi",
          "lat": 22.7747128,
          "lng": 78.533444
        },
        {
          "code": "OSM:1880382342",
          "name": "Baradighi",
          "lat": 26.7974349,
          "lng": 88.7401049
        },
        {
          "code": "OSM:9033471098",
          "name": "Barbil",
          "lat": 22.1048613,
          "lng": 85.3690447
        },
        {
          "code": "OSM:391345820",
          "name": "Bardoli",
          "lat": 21.1338291,
          "lng": 73.1053896
        },
        {
          "code": "OSM:6130405037",
          "name": "Bargi",
          "lat": 22.9939898,
          "lng": 79.872322
        },
        {
          "code": "OSM:9371203537",
          "name": "Barhi",
          "lat": 24.302575,
          "lng": 85.4089728
        },
        {
          "code": "OSM:7603765404",
          "name": "Barhni",
          "lat": 27.4956455,
          "lng": 82.7916397
        },
        {
          "code": "OSM:6699126850",
          "name": "Barlai",
          "lat": 22.8940168,
          "lng": 75.9621005
        },
        {
          "code": "OSM:4762298488",
          "name": "Basni",
          "lat": 26.2230285,
          "lng": 73.0108387
        },
        {
          "code": "OSM:5768131060",
          "name": "Basti",
          "lat": 26.8153868,
          "lng": 82.7698883
        },
        {
          "code": "OSM:665115034",
          "name": "Bauria",
          "lat": 22.5025222,
          "lng": 88.1632882
        },
        {
          "code": "OSM:6172161645",
          "name": "Bebejia",
          "lat": 26.2985369,
          "lng": 92.6271299
        },
        {
          "code": "OSM:2068422196",
          "name": "Bechraji",
          "lat": 23.5032966,
          "lng": 72.0465559
        },
        {
          "code": "OSM:5764400556",
          "name": "Begdewadi",
          "lat": 18.7009452,
          "lng": 73.7080003
        },
        {
          "code": "OSM:5851790521",
          "name": "Begunia",
          "lat": 20.1871614,
          "lng": 85.4319267
        },
        {
          "code": "OSM:11630690599",
          "name": "Behlba",
          "lat": 28.9313784,
          "lng": 76.3086185
        },
        {
          "code": "OSM:3431415718",
          "name": "Bela",
          "lat": 24.9798392,
          "lng": 84.9816711
        },
        {
          "code": "OSM:3006843624",
          "name": "Belanki",
          "lat": 16.851938,
          "lng": 74.8703246
        },
        {
          "code": "OSM:8712081070",
          "name": "Belboni",
          "lat": 23.27655,
          "lng": 87.1520036
        },
        {
          "code": "OSM:6794626057",
          "name": "Belda",
          "lat": 22.0711468,
          "lng": 87.33661
        },
        {
          "code": "OSM:1766031366",
          "name": "Belerhat",
          "lat": 23.520854,
          "lng": 88.2844126
        },
        {
          "code": "OSM:1765884993",
          "name": "Belgharia",
          "lat": 22.6613608,
          "lng": 88.3892144
        },
        {
          "code": "OSM:6208853570",
          "name": "Belha",
          "lat": 21.9611133,
          "lng": 82.0766837
        },
        {
          "code": "OSM:2181519936",
          "name": "Belkhera",
          "lat": 22.9825584,
          "lng": 79.3017398
        },
        {
          "code": "OSM:6121228283",
          "name": "Bellenahalli",
          "lat": 13.7425903,
          "lng": 75.7755906
        },
        {
          "code": "OSM:7717390983",
          "name": "Belmuri",
          "lat": 22.9324208,
          "lng": 88.1524178
        },
        {
          "code": "OSM:6152588816",
          "name": "Belonia",
          "lat": 23.2479453,
          "lng": 91.4844914
        },
        {
          "code": "OSM:7859294523",
          "name": "Belsonda",
          "lat": 21.1543773,
          "lng": 82.0354861
        },
        {
          "code": "OSM:664468001",
          "name": "Belur",
          "lat": 22.6357323,
          "lng": 88.3398223
        },
        {
          "code": "OSM:6171412045",
          "name": "Belvandi",
          "lat": 18.710759,
          "lng": 74.6225824
        },
        {
          "code": "OSM:9467066718",
          "name": "Bendi",
          "lat": 23.7566793,
          "lng": 84.4261631
        },
        {
          "code": "OSM:5033005890",
          "name": "Bermo",
          "lat": 23.7726095,
          "lng": 85.9563311
        },
        {
          "code": "OSM:8999697082",
          "name": "Bero",
          "lat": 23.5483251,
          "lng": 86.7269282
        },
        {
          "code": "OSM:978672750",
          "name": "Bethampudi",
          "lat": 17.5293585,
          "lng": 80.5286335
        },
        {
          "code": "OSM:746434809",
          "name": "Bettiah",
          "lat": 26.805388,
          "lng": 84.5223565
        },
        {
          "code": "OSM:1114884165",
          "name": "Betul",
          "lat": 21.8971699,
          "lng": 77.9061703
        },
        {
          "code": "OSM:1259593937",
          "name": "Bhadohi",
          "lat": 25.3949665,
          "lng": 82.5587121
        },
        {
          "code": "OSM:4705536596",
          "name": "Bhalki",
          "lat": 18.0470691,
          "lng": 77.2281379
        },
        {
          "code": "OSM:8999697114",
          "name": "Bhalui",
          "lat": 25.0734153,
          "lng": 86.1731856
        },
        {
          "code": "OSM:3573905709",
          "name": "Bhelwa",
          "lat": 26.9955305,
          "lng": 84.7715052
        },
        {
          "code": "OSM:1264297807",
          "name": "Bhiti",
          "lat": 25.3337865,
          "lng": 82.2619238
        },
        {
          "code": "OSM:345195663",
          "name": "Bhodwal Majri",
          "lat": 29.1852264,
          "lng": 77.0084189
        },
        {
          "code": "OSM:8999697068",
          "name": "Bholldih",
          "lat": 23.8983624,
          "lng": 86.1169548
        },
        {
          "code": "OSM:2432714498",
          "name": "Bhuli",
          "lat": 23.8018593,
          "lng": 86.3946762
        },
        {
          "code": "OSM:1946324081",
          "name": "Bhulon",
          "lat": 24.6430414,
          "lng": 76.9540163
        },
        {
          "code": "OSM:6179371622",
          "name": "Bildi",
          "lat": 23.2251382,
          "lng": 74.9182418
        },
        {
          "code": "OSM:1357056820",
          "name": "Bodeli",
          "lat": 22.269829,
          "lng": 73.7161432
        },
        {
          "code": "OSM:6698884292",
          "name": "Bolai",
          "lat": 23.3615483,
          "lng": 76.4869936
        },
        {
          "code": "OSM:5616004257",
          "name": "Bommidi",
          "lat": 11.984149,
          "lng": 78.2459633
        },
        {
          "code": "OSM:2522658123",
          "name": "Bondapalli",
          "lat": 18.2462723,
          "lng": 83.3373079
        },
        {
          "code": "OSM:5455871251",
          "name": "Bordi",
          "lat": 22.8668351,
          "lng": 74.348098
        },
        {
          "code": "OSM:6167985530",
          "name": "Bordoloni",
          "lat": 27.4233618,
          "lng": 94.4379455
        },
        {
          "code": "OSM:2100206551",
          "name": "Borkhedi",
          "lat": 20.8604733,
          "lng": 78.9744835
        },
        {
          "code": "OSM:6161287682",
          "name": "Boroti",
          "lat": 17.3949879,
          "lng": 76.255269
        },
        {
          "code": "OSM:10255364074",
          "name": "Bothiya",
          "lat": 22.3840657,
          "lng": 79.9521432
        },
        {
          "code": "OSM:2430771841",
          "name": "Brace Bridge",
          "lat": 22.5179206,
          "lng": 88.3011366
        },
        {
          "code": "OSM:1403203783",
          "name": "Budhi",
          "lat": 32.4406249,
          "lng": 75.4354296
        },
        {
          "code": "OSM:910356109",
          "name": "Budhni",
          "lat": 22.786886,
          "lng": 77.6814749
        },
        {
          "code": "OSM:2531993221",
          "name": "Budvel",
          "lat": 17.3098599,
          "lng": 78.4249837
        },
        {
          "code": "OSM:2188691216",
          "name": "Bundi",
          "lat": 25.4086173,
          "lng": 75.6508912
        },
        {
          "code": "OSM:6091755111",
          "name": "Byadgi",
          "lat": 14.6991545,
          "lng": 75.489622
        },
        {
          "code": "OSM:11335491946",
          "name": "CBD Belapur",
          "lat": 19.0190075,
          "lng": 73.0391304
        },
        {
          "code": "OSM:1600322577",
          "name": "Chajli",
          "lat": 30.0431222,
          "lng": 75.8129451
        },
        {
          "code": "OSM:6091705496",
          "name": "Chalgeri",
          "lat": 14.5614215,
          "lng": 75.7359556
        },
        {
          "code": "OSM:8999701144",
          "name": "Chandi",
          "lat": 25.3216063,
          "lng": 85.3904682
        },
        {
          "code": "OSM:6160642474",
          "name": "Charhi",
          "lat": 23.8419527,
          "lng": 85.4415588
        },
        {
          "code": "OSM:10249737154",
          "name": "Chegro",
          "lat": 24.0226318,
          "lng": 86.0241229
        },
        {
          "code": "OSM:665115013",
          "name": "Chengail",
          "lat": 22.4863905,
          "lng": 88.1389532
        },
        {
          "code": "OSM:6384826883",
          "name": "Chhina",
          "lat": 31.9022601,
          "lng": 75.2723068
        },
        {
          "code": "OSM:6233149220",
          "name": "Chhulha",
          "lat": 23.1026951,
          "lng": 81.7407677
        },
        {
          "code": "OSM:8999711335",
          "name": "Chicholi",
          "lat": 21.4663051,
          "lng": 79.7063101
        },
        {
          "code": "OSM:8999708446",
          "name": "Chilhia",
          "lat": 27.3467476,
          "lng": 82.9961001
        },
        {
          "code": "OSM:1942486351",
          "name": "Chilo",
          "lat": 27.4448982,
          "lng": 73.525454
        },
        {
          "code": "OSM:2523198272",
          "name": "Chimidipalli",
          "lat": 18.263135,
          "lng": 83.0782463
        },
        {
          "code": "OSM:6104941484",
          "name": "Chinchli",
          "lat": 16.5658466,
          "lng": 74.8534502
        },
        {
          "code": "OSM:3501418211",
          "name": "Chinchpokli",
          "lat": 18.9871984,
          "lng": 72.8326716
        },
        {
          "code": "OSM:6200774711",
          "name": "Chondi",
          "lat": 19.4307588,
          "lng": 77.1557383
        },
        {
          "code": "OSM:5273733276",
          "name": "Chromepet",
          "lat": 12.9521897,
          "lng": 80.1411677
        },
        {
          "code": "OSM:5289762701",
          "name": "Chuli",
          "lat": 23.0057646,
          "lng": 71.3430745
        },
        {
          "code": "OSM:6236720348",
          "name": "Churki",
          "lat": 24.2373286,
          "lng": 82.6917636
        },
        {
          "code": "OSM:566226583",
          "name": "Dabhoda",
          "lat": 23.1647156,
          "lng": 72.7435768
        },
        {
          "code": "OSM:6757647512",
          "name": "Dabhou",
          "lat": 22.5814125,
          "lng": 72.7325389
        },
        {
          "code": "OSM:1947145003",
          "name": "Dabla",
          "lat": 27.8887066,
          "lng": 75.9461788
        },
        {
          "code": "OSM:10251526304",
          "name": "Dabolim",
          "lat": 15.3871766,
          "lng": 73.8515245
        },
        {
          "code": "OSM:2185372259",
          "name": "Dabra",
          "lat": 25.8818881,
          "lng": 78.3305079
        },
        {
          "code": "OSM:1946127806",
          "name": "Dadhdevi",
          "lat": 25.0917422,
          "lng": 75.8948627
        },
        {
          "code": "OSM:7572622446",
          "name": "Dadri",
          "lat": 28.5387298,
          "lng": 77.5372191
        },
        {
          "code": "OSM:6208854254",
          "name": "Dagori",
          "lat": 21.9057504,
          "lng": 82.0693241
        },
        {
          "code": "OSM:6370111639",
          "name": "Dagru",
          "lat": 30.8285501,
          "lng": 75.0631825
        },
        {
          "code": "OSM:2100205664",
          "name": "Dahegaon",
          "lat": 20.7294147,
          "lng": 78.4634161
        },
        {
          "code": "OSM:3278092403",
          "name": "Dahej",
          "lat": 21.709301,
          "lng": 72.5893963
        },
        {
          "code": "OSM:806585219",
          "name": "Dahod",
          "lat": 22.8439297,
          "lng": 74.252386
        },
        {
          "code": "OSM:6699123335",
          "name": "Dakchya",
          "lat": 22.8568688,
          "lng": 75.9502022
        },
        {
          "code": "OSM:12117351376",
          "name": "Daklongia",
          "lat": 26.685548,
          "lng": 94.2826536
        },
        {
          "code": "OSM:1573035434",
          "name": "Dakor",
          "lat": 22.7466127,
          "lng": 73.1578516
        },
        {
          "code": "OSM:10245319635",
          "name": "Dal Chapra",
          "lat": 25.8279384,
          "lng": 84.4273991
        },
        {
          "code": "OSM:5745062164",
          "name": "Daladi",
          "lat": 22.5852012,
          "lng": 71.0701421
        },
        {
          "code": "OSM:1313338813",
          "name": "Dalan",
          "lat": 25.6028,
          "lng": 87.563074
        },
        {
          "code": "OSM:1422068068",
          "name": "Dalauda",
          "lat": 23.9488996,
          "lng": 75.1059228
        },
        {
          "code": "OSM:6186589885",
          "name": "Dalbhumgarh",
          "lat": 22.5055991,
          "lng": 86.5529644
        },
        {
          "code": "OSM:8999694696",
          "name": "Daldali",
          "lat": 25.820221,
          "lng": 93.517152
        },
        {
          "code": "OSM:4793929258",
          "name": "Dalelnagar",
          "lat": 27.118835,
          "lng": 80.4195466
        },
        {
          "code": "OSM:2037767593",
          "name": "Dalgaon",
          "lat": 26.7143829,
          "lng": 89.1371707
        },
        {
          "code": "OSM:4756584178",
          "name": "Dalhousie Road",
          "lat": 32.2886535,
          "lng": 75.7509207
        },
        {
          "code": "OSM:4966885718",
          "name": "Dalkhola",
          "lat": 25.8739615,
          "lng": 87.8391252
        },
        {
          "code": "OSM:4957348038",
          "name": "Damdim",
          "lat": 26.8589329,
          "lng": 88.6702466
        },
        {
          "code": "OSM:907082996",
          "name": "Damoh",
          "lat": 23.8360587,
          "lng": 79.4321389
        },
        {
          "code": "OSM:907773782",
          "name": "Damoy",
          "lat": 23.9712895,
          "lng": 80.9977879
        },
        {
          "code": "OSM:2813191883",
          "name": "Danea",
          "lat": 23.8009774,
          "lng": 85.6605411
        },
        {
          "code": "OSM:746951076",
          "name": "Dangari",
          "lat": 27.7093285,
          "lng": 95.5680312
        },
        {
          "code": "OSM:252584717",
          "name": "Dankuni",
          "lat": 22.6779609,
          "lng": 88.2907626
        },
        {
          "code": "OSM:2188101099",
          "name": "Dantra",
          "lat": 26.774786,
          "lng": 75.1539994
        },
        {
          "code": "OSM:2432308147",
          "name": "Dapodi",
          "lat": 18.5814473,
          "lng": 73.8326856
        },
        {
          "code": "OSM:2084522608",
          "name": "Darjeeling",
          "lat": 27.0381147,
          "lng": 88.263061
        },
        {
          "code": "OSM:1153239903",
          "name": "Daroji",
          "lat": 15.2266609,
          "lng": 76.7011143
        },
        {
          "code": "OSM:6292420497",
          "name": "Datewas",
          "lat": 29.8909868,
          "lng": 75.6205313
        },
        {
          "code": "OSM:2185372260",
          "name": "Datia",
          "lat": 25.6406595,
          "lng": 78.4559832
        },
        {
          "code": "OSM:1369352793",
          "name": "Dativali",
          "lat": 19.1871047,
          "lng": 73.0591806
        },
        {
          "code": "OSM:6185566652",
          "name": "Daulta",
          "lat": 24.9948937,
          "lng": 78.4288701
        },
        {
          "code": "OSM:2188135620",
          "name": "Daurai",
          "lat": 26.3956967,
          "lng": 74.6193143
        },
        {
          "code": "OSM:8999708460",
          "name": "Dausni",
          "lat": 29.784745,
          "lng": 77.979636
        },
        {
          "code": "OSM:2189395918",
          "name": "Debari",
          "lat": 24.6195194,
          "lng": 73.8049638
        },
        {
          "code": "OSM:1947353915",
          "name": "Deeg",
          "lat": 27.4867908,
          "lng": 77.3249866
        },
        {
          "code": "OSM:6187385777",
          "name": "Deen Dayal Dham",
          "lat": 27.3185696,
          "lng": 77.7583033
        },
        {
          "code": "OSM:8999700643",
          "name": "Deenapatti",
          "lat": 25.8955253,
          "lng": 86.9397017
        },
        {
          "code": "OSM:6699813725",
          "name": "Dehit",
          "lat": 25.298597,
          "lng": 75.8228663
        },
        {
          "code": "OSM:7699566001",
          "name": "Dehri on Sone",
          "lat": 24.9142734,
          "lng": 84.1862208
        },
        {
          "code": "OSM:5764399442",
          "name": "Dehu Road",
          "lat": 18.680047,
          "lng": 73.7343306
        },
        {
          "code": "OSM:2935037017",
          "name": "Delang",
          "lat": 20.0379856,
          "lng": 85.767105
        },
        {
          "code": "OSM:913486329",
          "name": "Delhi Azadpur",
          "lat": 28.7035041,
          "lng": 77.1770629
        },
        {
          "code": "OSM:632050796",
          "name": "Delhi Cantonment",
          "lat": 28.6117094,
          "lng": 77.1156635
        },
        {
          "code": "OSM:913095905",
          "name": "Delhi Junction",
          "lat": 28.660932,
          "lng": 77.2276494
        },
        {
          "code": "OSM:910356438",
          "name": "Delhi Safdarjang",
          "lat": 28.5822036,
          "lng": 77.1862115
        },
        {
          "code": "OSM:918557259",
          "name": "Delvada",
          "lat": 20.7735574,
          "lng": 71.0418496
        },
        {
          "code": "OSM:8999697055",
          "name": "Demu",
          "lat": 23.6972595,
          "lng": 84.5264467
        },
        {
          "code": "OSM:2886977935",
          "name": "Denduluru",
          "lat": 16.7817255,
          "lng": 81.1807255
        },
        {
          "code": "OSM:8573082509",
          "name": "Deobahal",
          "lat": 21.3715379,
          "lng": 83.7359168
        },
        {
          "code": "OSM:1216076123",
          "name": "Deoband",
          "lat": 29.67959,
          "lng": 77.6708855
        },
        {
          "code": "OSM:1669245969",
          "name": "Deoghar Junction",
          "lat": 24.5117352,
          "lng": 86.6971625
        },
        {
          "code": "OSM:6221800761",
          "name": "Deojhar",
          "lat": 22.0819366,
          "lng": 85.4772913
        },
        {
          "code": "OSM:10244170338",
          "name": "Deokali",
          "lat": 27.9771663,
          "lng": 80.7075625
        },
        {
          "code": "OSM:2052019000",
          "name": "Deori",
          "lat": 23.2983492,
          "lng": 80.0094726
        },
        {
          "code": "OSM:11813822598",
          "name": "Deoria",
          "lat": 26.1828905,
          "lng": 84.9985036
        },
        {
          "code": "OSM:6084723184",
          "name": "Derol",
          "lat": 22.6299886,
          "lng": 73.4619771
        },
        {
          "code": "OSM:2346871972",
          "name": "Desang",
          "lat": 27.0606645,
          "lng": 94.6925459
        },
        {
          "code": "OSM:1780321390",
          "name": "Desari",
          "lat": 25.6678427,
          "lng": 85.4085831
        },
        {
          "code": "OSM:2405154143",
          "name": "Deshapran",
          "lat": 22.0298506,
          "lng": 87.8179844
        },
        {
          "code": "OSM:1942486352",
          "name": "Deshnok",
          "lat": 27.790636,
          "lng": 73.3387386
        },
        {
          "code": "OSM:1852780582",
          "name": "Desur",
          "lat": 15.7528535,
          "lng": 74.4985633
        },
        {
          "code": "OSM:1942486354",
          "name": "Deswal",
          "lat": 26.8436167,
          "lng": 73.8873115
        },
        {
          "code": "OSM:1944412419",
          "name": "Det",
          "lat": 25.0037559,
          "lng": 74.64332
        },
        {
          "code": "OSM:6571836455",
          "name": "Detroj",
          "lat": 23.3400361,
          "lng": 72.1844358
        },
        {
          "code": "OSM:2038635591",
          "name": "Deula",
          "lat": 22.2145597,
          "lng": 88.2813672
        },
        {
          "code": "OSM:6186391857",
          "name": "Deulti",
          "lat": 22.4533543,
          "lng": 87.9146643
        },
        {
          "code": "OSM:1282829831",
          "name": "Devanahalli",
          "lat": 13.2475421,
          "lng": 77.7054075
        },
        {
          "code": "OSM:6089324161",
          "name": "Devanur",
          "lat": 13.4354386,
          "lng": 76.0928931
        },
        {
          "code": "OSM:389475284",
          "name": "Devarapalli",
          "lat": 13.7232336,
          "lng": 77.5119477
        },
        {
          "code": "OSM:6097289548",
          "name": "Devarayi",
          "lat": 15.4537123,
          "lng": 74.5768179
        },
        {
          "code": "OSM:7105216112",
          "name": "Devgam",
          "lat": 23.9608173,
          "lng": 71.5936818
        },
        {
          "code": "OSM:6171526043",
          "name": "Devlali",
          "lat": 19.8965492,
          "lng": 73.8367402
        },
        {
          "code": "OSM:6130402682",
          "name": "Devri P.H.",
          "lat": 22.8413006,
          "lng": 79.8336954
        },
        {
          "code": "OSM:6167435959",
          "name": "Dewanhat",
          "lat": 26.2356445,
          "lng": 89.4826716
        },
        {
          "code": "OSM:8858567696",
          "name": "Deypur P.H.",
          "lat": 19.9759586,
          "lng": 83.2716141
        },
        {
          "code": "OSM:1810912049",
          "name": "Dhalai Beel",
          "lat": 26.7916234,
          "lng": 92.923201
        },
        {
          "code": "OSM:3684324222",
          "name": "Dhalpukhuri",
          "lat": 25.9598593,
          "lng": 92.90648
        },
        {
          "code": "OSM:6200739082",
          "name": "Dhamni",
          "lat": 19.6490289,
          "lng": 77.1783399
        },
        {
          "code": "OSM:8999700690",
          "name": "Dhamua",
          "lat": 22.2903279,
          "lng": 88.3921686
        },
        {
          "code": "OSM:8999686384",
          "name": "Dhanari",
          "lat": 28.3284611,
          "lng": 78.5095957
        },
        {
          "code": "OSM:1076980728",
          "name": "Dhang",
          "lat": 26.7178569,
          "lng": 85.3531805
        },
        {
          "code": "OSM:6634332197",
          "name": "Dhanori",
          "lat": 20.8793208,
          "lng": 78.2908544
        },
        {
          "code": "OSM:6239801470",
          "name": "Dhansiri",
          "lat": 25.8114142,
          "lng": 93.6021705
        },
        {
          "code": "OSM:1941915668",
          "name": "Dhansu",
          "lat": 29.2083696,
          "lng": 75.7996653
        },
        {
          "code": "OSM:3184988387",
          "name": "Dharodi",
          "lat": 29.6396593,
          "lng": 76.0559201
        },
        {
          "code": "OSM:1774707835",
          "name": "Dhauni",
          "lat": 25.0105155,
          "lng": 86.9938385
        },
        {
          "code": "OSM:6161155891",
          "name": "Dhavlas",
          "lat": 18.1295488,
          "lng": 75.3343677
        },
        {
          "code": "OSM:7572390850",
          "name": "Dheena",
          "lat": 25.3540526,
          "lng": 83.4227505
        },
        {
          "code": "OSM:6177088493",
          "name": "Dhekvad",
          "lat": 21.353579,
          "lng": 74.1622424
        },
        {
          "code": "OSM:353681709",
          "name": "Dhelana",
          "lat": 26.9467707,
          "lng": 72.6528159
        },
        {
          "code": "OSM:1437215872",
          "name": "Dhemaji",
          "lat": 27.4894645,
          "lng": 94.5425052
        },
        {
          "code": "OSM:2082606881",
          "name": "Dhilwan",
          "lat": 31.5019018,
          "lng": 75.3274105
        },
        {
          "code": "OSM:6265040115",
          "name": "Dhimsiri",
          "lat": 27.0295336,
          "lng": 78.2003406
        },
        {
          "code": "OSM:2068422249",
          "name": "Dhinoj",
          "lat": 23.6710469,
          "lng": 72.2814899
        },
        {
          "code": "OSM:6372464836",
          "name": "Dhogri",
          "lat": 31.3938996,
          "lng": 75.633138
        },
        {
          "code": "OSM:6593097562",
          "name": "Dhoki",
          "lat": 18.3537447,
          "lng": 76.1030889
        },
        {
          "code": "OSM:6581118789",
          "name": "Dholi",
          "lat": 25.9766488,
          "lng": 85.5648708
        },
        {
          "code": "OSM:1939878680",
          "name": "Dholipal",
          "lat": 29.7607102,
          "lng": 74.2519151
        },
        {
          "code": "OSM:2668715940",
          "name": "Dholka",
          "lat": 22.7315548,
          "lng": 72.4344198
        },
        {
          "code": "OSM:603465469",
          "name": "Dhone Junction",
          "lat": 15.3953323,
          "lng": 77.8680662
        },
        {
          "code": "OSM:1063815274",
          "name": "Dhoraji",
          "lat": 21.7220402,
          "lng": 70.4443401
        },
        {
          "code": "OSM:7105222107",
          "name": "Dhrub",
          "lat": 22.7968329,
          "lng": 69.6723717
        },
        {
          "code": "OSM:7099895549",
          "name": "Dhubri",
          "lat": 26.0228197,
          "lng": 89.9779442
        },
        {
          "code": "OSM:5768071717",
          "name": "Dhubulia",
          "lat": 23.4859472,
          "lng": 88.4403495
        },
        {
          "code": "OSM:4944476042",
          "name": "Dhulabari",
          "lat": 26.3103712,
          "lng": 88.2058794
        },
        {
          "code": "OSM:1224887450",
          "name": "Dhule",
          "lat": 20.8878255,
          "lng": 74.7682128
        },
        {
          "code": "OSM:6200205191",
          "name": "Dhulghat",
          "lat": 21.2958057,
          "lng": 76.7499408
        },
        {
          "code": "OSM:345195425",
          "name": "Dhulkot",
          "lat": 30.3960955,
          "lng": 76.7877754
        },
        {
          "code": "OSM:6210193183",
          "name": "Dhutra",
          "lat": 21.8970319,
          "lng": 84.0912491
        },
        {
          "code": "OSM:8999708451",
          "name": "Dibai",
          "lat": 28.1951464,
          "lng": 78.3045539
        },
        {
          "code": "OSM:6336198474",
          "name": "Dibolong",
          "lat": 25.5951762,
          "lng": 93.0855886
        },
        {
          "code": "OSM:732162115",
          "name": "Dichpalli",
          "lat": 18.6136945,
          "lng": 78.1953039
        },
        {
          "code": "OSM:12081841061",
          "name": "Digboi",
          "lat": 27.3821246,
          "lng": 95.6175003
        },
        {
          "code": "OSM:2699884968",
          "name": "Dilmili",
          "lat": 18.9880676,
          "lng": 81.7374672
        },
        {
          "code": "OSM:9456380439",
          "name": "Dilwa",
          "lat": 24.5379761,
          "lng": 85.4195635
        },
        {
          "code": "OSM:6412491387",
          "name": "Ding",
          "lat": 29.4600814,
          "lng": 75.2618433
        },
        {
          "code": "OSM:6236869718",
          "name": "Dingwai",
          "lat": 25.4180692,
          "lng": 80.4129366
        },
        {
          "code": "OSM:1600760123",
          "name": "Diphu",
          "lat": 25.8371941,
          "lng": 93.4383663
        },
        {
          "code": "OSM:2789178471",
          "name": "Diviti Palli",
          "lat": 16.7412476,
          "lng": 78.0845041
        },
        {
          "code": "OSM:10654590058",
          "name": "Dobh Bhali",
          "lat": 28.8803334,
          "lng": 76.5237453
        },
        {
          "code": "OSM:2075454007",
          "name": "Dobhi",
          "lat": 25.611082,
          "lng": 82.9908994
        },
        {
          "code": "OSM:6087642801",
          "name": "Doddabele",
          "lat": 13.2166956,
          "lng": 77.3518686
        },
        {
          "code": "OSM:6334688819",
          "name": "Dodh",
          "lat": 30.8459985,
          "lng": 74.5242503
        },
        {
          "code": "OSM:6237042687",
          "name": "Dohru",
          "lat": 26.0906559,
          "lng": 80.1754052
        },
        {
          "code": "OSM:2048762183",
          "name": "Doikallu",
          "lat": 19.7412274,
          "lng": 83.4848525
        },
        {
          "code": "OSM:960296024",
          "name": "Dolavli",
          "lat": 18.8331631,
          "lng": 73.3203444
        },
        {
          "code": "OSM:4548420708",
          "name": "Dombivli",
          "lat": 19.2180493,
          "lng": 73.0861355
        },
        {
          "code": "OSM:1420381935",
          "name": "Domjur",
          "lat": 22.6431635,
          "lng": 88.2095491
        },
        {
          "code": "OSM:6165224396",
          "name": "Domohani",
          "lat": 26.5791556,
          "lng": 88.7696117
        },
        {
          "code": "OSM:7555912827",
          "name": "Dronagiri",
          "lat": 18.8813327,
          "lng": 72.9647315
        },
        {
          "code": "OSM:6581109363",
          "name": "Dubaha",
          "lat": 25.9486487,
          "lng": 85.6168091
        },
        {
          "code": "OSM:5781711576",
          "name": "Dubia",
          "lat": 26.9196497,
          "lng": 93.7202292
        },
        {
          "code": "OSM:1185954936",
          "name": "Dudahi",
          "lat": 26.7987511,
          "lng": 84.1413729
        },
        {
          "code": "OSM:1260935015",
          "name": "Duddhinagar",
          "lat": 24.2086163,
          "lng": 83.2166104
        },
        {
          "code": "OSM:1074981853",
          "name": "Dudhani",
          "lat": 17.3626389,
          "lng": 76.3802855
        },
        {
          "code": "OSM:7152416066",
          "name": "Dudhnai",
          "lat": 26.0014891,
          "lng": 90.7618909
        },
        {
          "code": "OSM:9906211028",
          "name": "Dudhwa",
          "lat": 28.5089313,
          "lng": 80.673172
        },
        {
          "code": "OSM:2189928470",
          "name": "Dudia",
          "lat": 25.9357559,
          "lng": 72.9041248
        },
        {
          "code": "OSM:6371547209",
          "name": "Dudwindi",
          "lat": 31.2413424,
          "lng": 75.2659824
        },
        {
          "code": "OSM:6202830654",
          "name": "Duhai",
          "lat": 28.7298257,
          "lng": 77.4797282
        },
        {
          "code": "OSM:1882492132",
          "name": "Dukheri",
          "lat": 30.2940126,
          "lng": 76.8864299
        },
        {
          "code": "OSM:6174656377",
          "name": "Dulariya",
          "lat": 22.5757565,
          "lng": 77.6545268
        },
        {
          "code": "OSM:1809800034",
          "name": "Dulmera",
          "lat": 28.407056,
          "lng": 73.6562173
        },
        {
          "code": "OSM:9034368928",
          "name": "Dumetra",
          "lat": 22.2138727,
          "lng": 84.9328434
        },
        {
          "code": "OSM:9656173885",
          "name": "Dumka",
          "lat": 24.2898469,
          "lng": 87.2551882
        },
        {
          "code": "OSM:1168421321",
          "name": "Dumra",
          "lat": 26.562273,
          "lng": 85.5334033
        },
        {
          "code": "OSM:910326514",
          "name": "Dundi",
          "lat": 23.5575248,
          "lng": 80.2173229
        },
        {
          "code": "OSM:5568407715",
          "name": "Dungri",
          "lat": 20.6876797,
          "lng": 72.9492412
        },
        {
          "code": "OSM:603465534",
          "name": "Dupadu",
          "lat": 15.7429853,
          "lng": 78.0131055
        },
        {
          "code": "OSM:5039624121",
          "name": "Durgauti",
          "lat": 25.207897,
          "lng": 83.539684
        },
        {
          "code": "OSM:2522892701",
          "name": "Dusi",
          "lat": 18.3702447,
          "lng": 83.858352
        },
        {
          "code": "OSM:1063868213",
          "name": "Dwarka",
          "lat": 22.2504892,
          "lng": 68.9801474
        },
        {
          "code": "OSM:5764349127",
          "name": "Edavai",
          "lat": 8.7632119,
          "lng": 76.6974127
        },
        {
          "code": "OSM:1890600393",
          "name": "Edduladoddi",
          "lat": 15.3291447,
          "lng": 77.5905734
        },
        {
          "code": "OSM:7576345507",
          "name": "Ekdil",
          "lat": 26.7660735,
          "lng": 79.1185583
        },
        {
          "code": "OSM:3982037046",
          "name": "Eklakhi",
          "lat": 25.1680829,
          "lng": 88.0988866
        },
        {
          "code": "OSM:5273810375",
          "name": "Elavur",
          "lat": 13.4589636,
          "lng": 80.1158917
        },
        {
          "code": "OSM:1884817313",
          "name": "Eluru",
          "lat": 16.7181031,
          "lng": 81.1194761
        },
        {
          "code": "OSM:5349398293",
          "name": "Ezhukone",
          "lat": 8.97952,
          "lng": 76.7153297
        },
        {
          "code": "OSM:2188190139",
          "name": "Falna",
          "lat": 25.2359464,
          "lng": 73.2351501
        },
        {
          "code": "OSM:2039592813",
          "name": "Fatuhi",
          "lat": 30.0532987,
          "lng": 73.8690403
        },
        {
          "code": "OSM:5997117413",
          "name": "Ferok",
          "lat": 11.1759122,
          "lng": 75.8301877
        },
        {
          "code": "OSM:2986295912",
          "name": "Fertilizer Township",
          "lat": 19.0438776,
          "lng": 72.893456
        },
        {
          "code": "OSM:2431944897",
          "name": "Galsi",
          "lat": 23.3585438,
          "lng": 87.6813646
        },
        {
          "code": "OSM:6186589350",
          "name": "Galudih",
          "lat": 22.6480073,
          "lng": 86.4115668
        },
        {
          "code": "OSM:2522658086",
          "name": "Garudubilli",
          "lat": 18.2031794,
          "lng": 83.3544375
        },
        {
          "code": "OSM:2188100753",
          "name": "Gegal Akhri",
          "lat": 26.5422102,
          "lng": 74.7777295
        },
        {
          "code": "OSM:6571849133",
          "name": "Ghelda",
          "lat": 23.3675649,
          "lng": 72.2092395
        },
        {
          "code": "OSM:746435129",
          "name": "Ghughuli",
          "lat": 27.0537699,
          "lng": 83.7138739
        },
        {
          "code": "OSM:2519555856",
          "name": "Gidhni",
          "lat": 22.4881078,
          "lng": 86.8533503
        },
        {
          "code": "OSM:6087642665",
          "name": "Gollahalli",
          "lat": 13.1458556,
          "lng": 77.4173425
        },
        {
          "code": "OSM:2668391459",
          "name": "Govindwal Sahib",
          "lat": 31.3707229,
          "lng": 75.1101271
        },
        {
          "code": "OSM:794150286",
          "name": "Gubbi",
          "lat": 13.3214083,
          "lng": 76.9387568
        },
        {
          "code": "OSM:6064300323",
          "name": "Gudupulli",
          "lat": 12.8034773,
          "lng": 78.2747707
        },
        {
          "code": "OSM:9828930405",
          "name": "Gulaothi",
          "lat": 28.5815658,
          "lng": 77.8013509
        },
        {
          "code": "OSM:2357205851",
          "name": "Guler",
          "lat": 32.0047724,
          "lng": 76.151316
        },
        {
          "code": "OSM:6169202411",
          "name": "Gulvanchi",
          "lat": 17.172758,
          "lng": 75.0561784
        },
        {
          "code": "OSM:1596324930",
          "name": "Gurhi",
          "lat": 21.6301216,
          "lng": 76.5812563
        },
        {
          "code": "OSM:5768201168",
          "name": "Haldia",
          "lat": 22.044614,
          "lng": 88.0654592
        },
        {
          "code": "OSM:1943016470",
          "name": "Hansi",
          "lat": 29.0881334,
          "lng": 75.9474465
        },
        {
          "code": "OSM:6233095462",
          "name": "Harri",
          "lat": 22.8273099,
          "lng": 81.882391
        },
        {
          "code": "OSM:6236836990",
          "name": "Hati",
          "lat": 24.6881125,
          "lng": 80.8426917
        },
        {
          "code": "OSM:2554438211",
          "name": "Haveri",
          "lat": 14.7947529,
          "lng": 75.4111439
        },
        {
          "code": "OSM:5764377675",
          "name": "Hebsur",
          "lat": 15.4232161,
          "lng": 75.2859178
        },
        {
          "code": "OSM:695074547",
          "name": "Heelalige",
          "lat": 12.8132888,
          "lng": 77.7110736
        },
        {
          "code": "OSM:1947172010",
          "name": "Helak",
          "lat": 27.2341434,
          "lng": 77.3745682
        },
        {
          "code": "OSM:6167985537",
          "name": "Helem",
          "lat": 26.8729733,
          "lng": 93.4528023
        },
        {
          "code": "OSM:6210180352",
          "name": "Hemagir",
          "lat": 21.8761448,
          "lng": 83.7428037
        },
        {
          "code": "OSM:9928644743",
          "name": "Hendegir",
          "lat": 23.6976543,
          "lng": 85.1770583
        },
        {
          "code": "OSM:794061518",
          "name": "Hijli",
          "lat": 22.3196993,
          "lng": 87.3193294
        },
        {
          "code": "OSM:2161260969",
          "name": "Hilsa",
          "lat": 25.3173575,
          "lng": 85.2770406
        },
        {
          "code": "OSM:389475413",
          "name": "Hirehalli",
          "lat": 13.2806649,
          "lng": 77.1887827
        },
        {
          "code": "OSM:1425916857",
          "name": "Hitech City",
          "lat": 17.4698143,
          "lng": 78.3853779
        },
        {
          "code": "OSM:4639561294",
          "name": "Hoodi",
          "lat": 12.9959233,
          "lng": 77.7192796
        },
        {
          "code": "OSM:663950712",
          "name": "Hooghly",
          "lat": 22.9052114,
          "lng": 88.3760639
        },
        {
          "code": "OSM:1465593508",
          "name": "Hulkoti",
          "lat": 15.4331872,
          "lng": 75.5288841
        },
        {
          "code": "OSM:4760378947",
          "name": "Idappalli",
          "lat": 10.0345332,
          "lng": 76.298762
        },
        {
          "code": "OSM:778487537",
          "name": "Idgah",
          "lat": 27.1738456,
          "lng": 77.9999898
        },
        {
          "code": "OSM:2185619761",
          "name": "Ikdori",
          "lat": 26.0543688,
          "lng": 76.9517329
        },
        {
          "code": "OSM:6208572953",
          "name": "Iklehra",
          "lat": 22.2079607,
          "lng": 78.7088841
        },
        {
          "code": "OSM:9214916475",
          "name": "Illoo",
          "lat": 23.3182474,
          "lng": 85.8655867
        },
        {
          "code": "OSM:6154058674",
          "name": "Imli",
          "lat": 25.5555098,
          "lng": 86.3029513
        },
        {
          "code": "OSM:2085369003",
          "name": "Indalvai",
          "lat": 18.5493615,
          "lng": 78.2451313
        },
        {
          "code": "OSM:1627261080",
          "name": "Indrabil",
          "lat": 23.4452443,
          "lng": 86.781739
        },
        {
          "code": "OSM:2974241133",
          "name": "Isivi",
          "lat": 15.6575542,
          "lng": 77.2297938
        },
        {
          "code": "OSM:1010270861",
          "name": "Jabli",
          "lat": 30.882141,
          "lng": 76.9920345
        },
        {
          "code": "OSM:6698899003",
          "name": "Jabri",
          "lat": 23.2936408,
          "lng": 76.8904607
        },
        {
          "code": "OSM:6063714217",
          "name": "Jaklair",
          "lat": 16.5782963,
          "lng": 77.6073066
        },
        {
          "code": "OSM:6571849177",
          "name": "Jaksi",
          "lat": 23.1974863,
          "lng": 72.0985192
        },
        {
          "code": "OSM:6764025143",
          "name": "Jaliya",
          "lat": 21.8155236,
          "lng": 71.6326258
        },
        {
          "code": "OSM:732565263",
          "name": "Jalna",
          "lat": 19.8318228,
          "lng": 75.8909339
        },
        {
          "code": "OSM:355747516",
          "name": "Jalor",
          "lat": 25.3543102,
          "lng": 72.6341645
        },
        {
          "code": "OSM:1942504136",
          "name": "Jalsu",
          "lat": 26.8464607,
          "lng": 74.1992445
        },
        {
          "code": "OSM:1775321358",
          "name": "Jamui",
          "lat": 24.9727374,
          "lng": 86.2551142
        },
        {
          "code": "OSM:1326815671",
          "name": "Jamuni",
          "lat": 23.7695755,
          "lng": 86.2033493
        },
        {
          "code": "OSM:2350878016",
          "name": "Jari",
          "lat": 24.586587,
          "lng": 72.0608723
        },
        {
          "code": "OSM:2429803156",
          "name": "Jejuri",
          "lat": 18.2871679,
          "lng": 74.1716695
        },
        {
          "code": "OSM:6178341292",
          "name": "Jekot",
          "lat": 22.8658944,
          "lng": 74.1596514
        },
        {
          "code": "OSM:6395812087",
          "name": "Jethantri",
          "lat": 25.8216329,
          "lng": 72.4831846
        },
        {
          "code": "OSM:6418267632",
          "name": "Jethi",
          "lat": 24.296885,
          "lng": 72.5096884
        },
        {
          "code": "OSM:2161262091",
          "name": "Jethian",
          "lat": 24.9293901,
          "lng": 85.314193
        },
        {
          "code": "OSM:6361774233",
          "name": "Jethuke",
          "lat": 30.2885911,
          "lng": 75.3190493
        },
        {
          "code": "OSM:4510277594",
          "name": "Jeur",
          "lat": 18.2611852,
          "lng": 75.1622878
        },
        {
          "code": "OSM:8999686368",
          "name": "Jhilahi",
          "lat": 27.0689881,
          "lng": 82.1778131
        },
        {
          "code": "OSM:360619312",
          "name": "Jhilo",
          "lat": 27.848368,
          "lng": 75.8850984
        },
        {
          "code": "OSM:9214854966",
          "name": "Jhimri",
          "lat": 23.0714443,
          "lng": 86.0787915
        },
        {
          "code": "OSM:7596025213",
          "name": "Jhusi",
          "lat": 25.4312509,
          "lng": 81.9161439
        },
        {
          "code": "OSM:1339609875",
          "name": "Jukehi",
          "lat": 23.9858153,
          "lng": 80.4324882
        },
        {
          "code": "OSM:1852936535",
          "name": "Julmi",
          "lat": 24.6027112,
          "lng": 75.9863671
        },
        {
          "code": "OSM:2068421650",
          "name": "Kadi",
          "lat": 23.2924804,
          "lng": 72.3266899
        },
        {
          "code": "OSM:10249737159",
          "name": "Kajri",
          "lat": 24.1252375,
          "lng": 84.0667961
        },
        {
          "code": "OSM:11780314052",
          "name": "Kakni",
          "lat": 24.5425656,
          "lng": 86.9974816
        },
        {
          "code": "OSM:2240084487",
          "name": "Kakori",
          "lat": 26.883972,
          "lng": 80.8001979
        },
        {
          "code": "OSM:6130402681",
          "name": "Kaladehi",
          "lat": 22.8820854,
          "lng": 79.8349335
        },
        {
          "code": "OSM:10255800222",
          "name": "Kaladi",
          "lat": 10.1653287,
          "lng": 76.4275746
        },
        {
          "code": "OSM:6146233156",
          "name": "Kalchini",
          "lat": 26.6877066,
          "lng": 89.4483963
        },
        {
          "code": "OSM:2152912075",
          "name": "Kaldhari",
          "lat": 16.8360352,
          "lng": 81.6778965
        },
        {
          "code": "OSM:2122430552",
          "name": "Kalem",
          "lat": 15.2919823,
          "lng": 74.1844181
        },
        {
          "code": "OSM:728164107",
          "name": "Kallayi",
          "lat": 11.2338188,
          "lng": 75.7889536
        },
        {
          "code": "OSM:1478601677",
          "name": "Kalpi",
          "lat": 26.1200627,
          "lng": 79.7560895
        },
        {
          "code": "OSM:2351982768",
          "name": "Kamli",
          "lat": 23.8626407,
          "lng": 72.3760046
        },
        {
          "code": "OSM:5764400645",
          "name": "Kanhe",
          "lat": 18.7620969,
          "lng": 73.594046
        },
        {
          "code": "OSM:4991216421",
          "name": "Kanki",
          "lat": 26.0022031,
          "lng": 87.8650874
        },
        {
          "code": "OSM:6178341356",
          "name": "Kansudhi",
          "lat": 22.7889518,
          "lng": 73.647328
        },
        {
          "code": "OSM:981983722",
          "name": "Kanthi",
          "lat": 21.7884623,
          "lng": 87.7339077
        },
        {
          "code": "OSM:1074041982",
          "name": "Kanti",
          "lat": 26.1998948,
          "lng": 85.2857946
        },
        {
          "code": "OSM:334641675",
          "name": "Kappil",
          "lat": 8.7795558,
          "lng": 76.6792879
        },
        {
          "code": "OSM:12187449564",
          "name": "Kapsethi",
          "lat": 25.3576215,
          "lng": 82.7181844
        },
        {
          "code": "OSM:1814580873",
          "name": "Kardi",
          "lat": 13.2671928,
          "lng": 76.5723116
        },
        {
          "code": "OSM:10244262977",
          "name": "Karengi",
          "lat": 28.3431841,
          "lng": 79.0510891
        },
        {
          "code": "OSM:293269947",
          "name": "Kashi",
          "lat": 25.3268078,
          "lng": 83.0318039
        },
        {
          "code": "OSM:6171411917",
          "name": "Kashti",
          "lat": 18.5242967,
          "lng": 74.5987795
        },
        {
          "code": "OSM:6027050751",
          "name": "Kateri",
          "lat": 11.3354097,
          "lng": 76.7916507
        },
        {
          "code": "OSM:6010960061",
          "name": "Kauli",
          "lat": 30.4153659,
          "lng": 76.5179434
        },
        {
          "code": "OSM:6361725303",
          "name": "Kaulseri",
          "lat": 30.3693597,
          "lng": 75.9391373
        },
        {
          "code": "OSM:1065383969",
          "name": "Kavi",
          "lat": 22.1923911,
          "lng": 72.6304563
        },
        {
          "code": "OSM:6865056796",
          "name": "Kechki",
          "lat": 23.9286976,
          "lng": 84.1465938
        },
        {
          "code": "OSM:6348028112",
          "name": "Kela Devi",
          "lat": 27.0167534,
          "lng": 77.3297328
        },
        {
          "code": "OSM:4337976426",
          "name": "Kelzar",
          "lat": 19.9840778,
          "lng": 79.5671047
        },
        {
          "code": "OSM:1207420364",
          "name": "Kemri",
          "lat": 28.8111515,
          "lng": 79.2012498
        },
        {
          "code": "OSM:1638138296",
          "name": "Kendposi",
          "lat": 22.2797405,
          "lng": 85.7269296
        },
        {
          "code": "OSM:7838140161",
          "name": "Kendri",
          "lat": 21.1020957,
          "lng": 81.7411418
        },
        {
          "code": "OSM:308062102",
          "name": "Kengeri",
          "lat": 12.9176571,
          "lng": 77.4837568
        },
        {
          "code": "OSM:2039093406",
          "name": "Keolari",
          "lat": 22.3751368,
          "lng": 79.9091741
        },
        {
          "code": "OSM:8920341571",
          "name": "Keoti",
          "lat": 20.2273032,
          "lng": 81.0809214
        },
        {
          "code": "OSM:918556145",
          "name": "Keshod",
          "lat": 21.2981273,
          "lng": 70.2515019
        },
        {
          "code": "OSM:1946324100",
          "name": "Kesholi",
          "lat": 24.7290284,
          "lng": 76.7891361
        },
        {
          "code": "OSM:10249737153",
          "name": "Keshwari",
          "lat": 24.2076465,
          "lng": 85.8497966
        },
        {
          "code": "OSM:3047562521",
          "name": "Kesri",
          "lat": 30.2654448,
          "lng": 76.9338376
        },
        {
          "code": "OSM:279318171",
          "name": "Ketti",
          "lat": 11.3817911,
          "lng": 76.7376133
        },
        {
          "code": "OSM:6689929511",
          "name": "Kevedi",
          "lat": 21.4911577,
          "lng": 73.4561587
        },
        {
          "code": "OSM:6738978951",
          "name": "Khakhrechi",
          "lat": 23.0533768,
          "lng": 70.9166936
        },
        {
          "code": "OSM:6801253146",
          "name": "Khallikot",
          "lat": 19.611017,
          "lng": 85.1277618
        },
        {
          "code": "OSM:1947132915",
          "name": "Khandel",
          "lat": 26.9526596,
          "lng": 75.2795753
        },
        {
          "code": "OSM:5773700367",
          "name": "Khanderi",
          "lat": 22.3615969,
          "lng": 70.7172894
        },
        {
          "code": "OSM:2189395929",
          "name": "Khemli",
          "lat": 24.6928934,
          "lng": 73.8460786
        },
        {
          "code": "OSM:6233102790",
          "name": "Khodri",
          "lat": 22.6655365,
          "lng": 81.9352037
        },
        {
          "code": "OSM:1737506522",
          "name": "Khori",
          "lat": 28.1885144,
          "lng": 76.5021829
        },
        {
          "code": "OSM:2620614573",
          "name": "Kille",
          "lat": 11.438452,
          "lng": 79.7232584
        },
        {
          "code": "OSM:6024075942",
          "name": "Kodumudi",
          "lat": 11.0764867,
          "lng": 77.8862837
        },
        {
          "code": "OSM:7572390829",
          "name": "Koelwar",
          "lat": 25.5693726,
          "lng": 84.7927554
        },
        {
          "code": "OSM:6203648685",
          "name": "Kohli",
          "lat": 21.2735481,
          "lng": 78.8078808
        },
        {
          "code": "OSM:6177088496",
          "name": "Kolde",
          "lat": 21.1613562,
          "lng": 73.867988
        },
        {
          "code": "OSM:2515514045",
          "name": "Kolhadi",
          "lat": 20.9005178,
          "lng": 76.0640541
        },
        {
          "code": "OSM:5300686641",
          "name": "Kollidam",
          "lat": 11.3286036,
          "lng": 79.719238
        },
        {
          "code": "OSM:6634273922",
          "name": "Kolvihir",
          "lat": 21.2555112,
          "lng": 77.8363158
        },
        {
          "code": "OSM:2323179472",
          "name": "Kondapalli",
          "lat": 16.6237078,
          "lng": 80.5468796
        },
        {
          "code": "OSM:2966515533",
          "name": "Kosgi",
          "lat": 15.847702,
          "lng": 77.2363765
        },
        {
          "code": "OSM:468732267",
          "name": "Kosli",
          "lat": 28.4114849,
          "lng": 76.4654844
        },
        {
          "code": "OSM:6699815521",
          "name": "Kothia",
          "lat": 25.3566659,
          "lng": 75.6981757
        },
        {
          "code": "OSM:269201529",
          "name": "Kozhikode",
          "lat": 11.2459092,
          "lng": 75.7803858
        },
        {
          "code": "OSM:1516238750",
          "name": "Kudachi",
          "lat": 16.6242898,
          "lng": 74.858412
        },
        {
          "code": "OSM:6131954117",
          "name": "Kudatini",
          "lat": 15.214703,
          "lng": 76.7633856
        },
        {
          "code": "OSM:2907527639",
          "name": "Kuhi",
          "lat": 21.0071063,
          "lng": 79.3503025
        },
        {
          "code": "OSM:6026478555",
          "name": "Kulathur",
          "lat": 10.4348038,
          "lng": 78.009917
        },
        {
          "code": "OSM:2122430555",
          "name": "Kulem",
          "lat": 15.3341595,
          "lng": 74.2445945
        },
        {
          "code": "OSM:6186391878",
          "name": "Kulgachia",
          "lat": 22.472091,
          "lng": 88.0205997
        },
        {
          "code": "OSM:4002518643",
          "name": "Kulharia",
          "lat": 25.5682075,
          "lng": 84.758203
        },
        {
          "code": "OSM:720609887",
          "name": "Kulti",
          "lat": 23.7381419,
          "lng": 86.8485147
        },
        {
          "code": "OSM:1271236277",
          "name": "Kulwa",
          "lat": 27.9801855,
          "lng": 78.0098935
        },
        {
          "code": "OSM:6121708569",
          "name": "Kumsi",
          "lat": 14.0567125,
          "lng": 75.4094498
        },
        {
          "code": "OSM:6201517388",
          "name": "Kunki",
          "lat": 22.875765,
          "lng": 86.0672512
        },
        {
          "code": "OSM:9535766780",
          "name": "Kusmahi",
          "lat": 23.7832242,
          "lng": 84.7832
        },
        {
          "code": "OSM:10243365038",
          "name": "Kusmhi",
          "lat": 26.7002533,
          "lng": 83.4950862
        },
        {
          "code": "OSM:5067462017",
          "name": "Kusumbhi",
          "lat": 26.6392788,
          "lng": 80.6540056
        },
        {
          "code": "OSM:1313338473",
          "name": "Labha",
          "lat": 25.4398132,
          "lng": 87.7445945
        },
        {
          "code": "OSM:1757485953",
          "name": "Lahli",
          "lat": 28.8538895,
          "lng": 76.4463532
        },
        {
          "code": "OSM:1946387902",
          "name": "Lakheri",
          "lat": 25.6394164,
          "lng": 76.1931473
        },
        {
          "code": "OSM:7859315564",
          "name": "Lakholi",
          "lat": 21.2015273,
          "lng": 81.8886043
        },
        {
          "code": "OSM:5303840006",
          "name": "Lalgudi",
          "lat": 10.8754197,
          "lng": 78.8153244
        },
        {
          "code": "OSM:6343594198",
          "name": "Lalru",
          "lat": 30.4797102,
          "lng": 76.7944291
        },
        {
          "code": "OSM:6763985713",
          "name": "Lathi",
          "lat": 21.7393601,
          "lng": 71.3867825
        },
        {
          "code": "OSM:4751283163",
          "name": "Ledo",
          "lat": 27.2911125,
          "lng": 95.7386007
        },
        {
          "code": "OSM:10243222000",
          "name": "Lehra",
          "lat": 27.1685671,
          "lng": 83.2284212
        },
        {
          "code": "OSM:6396798311",
          "name": "Lilma",
          "lat": 25.7509649,
          "lng": 70.4695978
        },
        {
          "code": "OSM:910816073",
          "name": "Limbdi",
          "lat": 22.5660006,
          "lng": 71.7899425
        },
        {
          "code": "OSM:6286438968",
          "name": "Lingti",
          "lat": 19.7965256,
          "lng": 78.7521369
        },
        {
          "code": "OSM:6169133038",
          "name": "Loliem",
          "lat": 14.9395127,
          "lng": 74.0879945
        },
        {
          "code": "OSM:6161153169",
          "name": "Madha",
          "lat": 18.0301719,
          "lng": 75.5464219
        },
        {
          "code": "OSM:414849419",
          "name": "Madhi",
          "lat": 21.1457123,
          "lng": 73.2424025
        },
        {
          "code": "OSM:1734929360",
          "name": "Madhira",
          "lat": 16.922272,
          "lng": 80.3655535
        },
        {
          "code": "OSM:8999700637",
          "name": "Mael",
          "lat": 23.574668,
          "lng": 85.626042
        },
        {
          "code": "OSM:5997744248",
          "name": "Mah",
          "lat": 11.69899,
          "lng": 75.5465396
        },
        {
          "code": "OSM:6173597912",
          "name": "Maheji",
          "lat": 20.7691355,
          "lng": 75.4244792
        },
        {
          "code": "OSM:10251364159",
          "name": "Maheshi",
          "lat": 25.2396037,
          "lng": 86.7880141
        },
        {
          "code": "OSM:2073194865",
          "name": "Maholi",
          "lat": 27.6487885,
          "lng": 80.4773143
        },
        {
          "code": "OSM:1678725387",
          "name": "Mahroi",
          "lat": 23.9508929,
          "lng": 80.9187709
        },
        {
          "code": "OSM:5097959958",
          "name": "Majhaoli",
          "lat": 24.1756618,
          "lng": 82.3924287
        },
        {
          "code": "OSM:5852243612",
          "name": "Majhdia",
          "lat": 23.4148457,
          "lng": 88.7195349
        },
        {
          "code": "OSM:2552257756",
          "name": "Makhu",
          "lat": 31.10579,
          "lng": 74.9840227
        },
        {
          "code": "OSM:2063677040",
          "name": "Makudi",
          "lat": 19.5374036,
          "lng": 79.4788344
        },
        {
          "code": "OSM:3347034598",
          "name": "Malad",
          "lat": 19.1867193,
          "lng": 72.8485884
        },
        {
          "code": "OSM:506280911",
          "name": "Malavli",
          "lat": 18.7442145,
          "lng": 73.4801637
        },
        {
          "code": "OSM:2097662681",
          "name": "Malkhed",
          "lat": 20.8222351,
          "lng": 77.8650132
        },
        {
          "code": "OSM:2965578395",
          "name": "Mandavalli",
          "lat": 16.518662,
          "lng": 81.161107
        },
        {
          "code": "OSM:5311755235",
          "name": "Mandaveli",
          "lat": 13.0280931,
          "lng": 80.2606181
        },
        {
          "code": "OSM:6334165531",
          "name": "Manderdisa",
          "lat": 25.7196912,
          "lng": 93.1275255
        },
        {
          "code": "OSM:10715853829",
          "name": "Manjhi",
          "lat": 25.8182136,
          "lng": 84.6036637
        },
        {
          "code": "OSM:2548066556",
          "name": "Manki",
          "lat": 14.1746437,
          "lng": 74.493679
        },
        {
          "code": "OSM:6236958316",
          "name": "Mawai",
          "lat": 24.7902703,
          "lng": 78.924467
        },
        {
          "code": "OSM:944754356",
          "name": "Mecheda",
          "lat": 22.4135825,
          "lng": 87.8569807
        },
        {
          "code": "OSM:2962282515",
          "name": "Medchal",
          "lat": 17.6399251,
          "lng": 78.4753441
        },
        {
          "code": "OSM:2048726578",
          "name": "Mehsi",
          "lat": 26.3555801,
          "lng": 85.095953
        },
        {
          "code": "OSM:12096013703",
          "name": "Meleng",
          "lat": 26.6793365,
          "lng": 94.3569854
        },
        {
          "code": "OSM:5310778050",
          "name": "Melpatti",
          "lat": 12.8583448,
          "lng": 78.795185
        },
        {
          "code": "OSM:5088725081",
          "name": "Memari",
          "lat": 23.1726833,
          "lng": 88.0959803
        },
        {
          "code": "OSM:784500855",
          "name": "Mendu",
          "lat": 27.6204051,
          "lng": 78.1197916
        },
        {
          "code": "OSM:4249278965",
          "name": "Mesra",
          "lat": 23.4227444,
          "lng": 85.4189682
        },
        {
          "code": "OSM:1302920365",
          "name": "Mesra",
          "lat": 23.4224582,
          "lng": 85.4185465
        },
        {
          "code": "OSM:1943788149",
          "name": "Methai",
          "lat": 25.9065698,
          "lng": 86.725162
        },
        {
          "code": "OSM:2049314992",
          "name": "Metpalli",
          "lat": 18.8543721,
          "lng": 78.6382039
        },
        {
          "code": "OSM:6697696250",
          "name": "Mevli",
          "lat": 22.6118942,
          "lng": 73.3238716
        },
        {
          "code": "OSM:6259220460",
          "name": "Milaoli",
          "lat": 26.3002868,
          "lng": 78.1199773
        },
        {
          "code": "OSM:2346871976",
          "name": "MohKhuti",
          "lat": 27.1059291,
          "lng": 94.8066994
        },
        {
          "code": "OSM:345195453",
          "name": "Mohri",
          "lat": 30.2555275,
          "lng": 76.8504589
        },
        {
          "code": "OSM:6683810385",
          "name": "Mokholi",
          "lat": 26.1616958,
          "lng": 76.4618388
        },
        {
          "code": "OSM:9848477377",
          "name": "Molvom",
          "lat": 25.7427091,
          "lng": 93.8501834
        },
        {
          "code": "OSM:1425115150",
          "name": "Morbi",
          "lat": 22.8243878,
          "lng": 70.8312683
        },
        {
          "code": "OSM:6634269912",
          "name": "Morshi",
          "lat": 21.3265968,
          "lng": 77.9962827
        },
        {
          "code": "OSM:298611723",
          "name": "Mulki",
          "lat": 13.068958,
          "lng": 74.8052727
        },
        {
          "code": "OSM:1471841716",
          "name": "Multai",
          "lat": 21.7828449,
          "lng": 78.263508
        },
        {
          "code": "OSM:1643351703",
          "name": "Mulund",
          "lat": 19.1721762,
          "lng": 72.9562383
        },
        {
          "code": "OSM:9006525320",
          "name": "Munderwa",
          "lat": 26.7768042,
          "lng": 82.9034154
        },
        {
          "code": "OSM:6161200235",
          "name": "Mundhewadi",
          "lat": 17.7419957,
          "lng": 75.7062882
        },
        {
          "code": "OSM:715178218",
          "name": "Murkongselek",
          "lat": 27.8311509,
          "lng": 95.220213
        },
        {
          "code": "OSM:9906299873",
          "name": "Murthiha",
          "lat": 28.1825342,
          "lng": 81.2720275
        },
        {
          "code": "OSM:6593149761",
          "name": "Murud",
          "lat": 18.3803611,
          "lng": 76.2510946
        },
        {
          "code": "OSM:10249341956",
          "name": "Muthani",
          "lat": 25.1420141,
          "lng": 83.6617357
        },
        {
          "code": "OSM:1389874630",
          "name": "Nabha",
          "lat": 30.3634981,
          "lng": 76.1460696
        },
        {
          "code": "OSM:6635330975",
          "name": "Nagri",
          "lat": 20.4068695,
          "lng": 78.8900569
        },
        {
          "code": "OSM:829908362",
          "name": "Nalbari",
          "lat": 26.4506915,
          "lng": 91.4388694
        },
        {
          "code": "OSM:7105222171",
          "name": "Naliya",
          "lat": 23.2435087,
          "lng": 68.8252367
        },
        {
          "code": "OSM:5349727077",
          "name": "Nalli",
          "lat": 9.2702621,
          "lng": 77.922843
        },
        {
          "code": "OSM:1422067704",
          "name": "Namli",
          "lat": 23.4555165,
          "lng": 75.0669853
        },
        {
          "code": "OSM:2346871970",
          "name": "Namti",
          "lat": 26.855288,
          "lng": 94.627418
        },
        {
          "code": "OSM:318159226",
          "name": "Nandesari",
          "lat": 22.4178037,
          "lng": 73.0949186
        },
        {
          "code": "OSM:2430737240",
          "name": "Nangi",
          "lat": 22.5002134,
          "lng": 88.2233537
        },
        {
          "code": "OSM:5737166756",
          "name": "Nangloi",
          "lat": 28.6862813,
          "lng": 77.0573608
        },
        {
          "code": "OSM:2663623464",
          "name": "Naultha",
          "lat": 29.315768,
          "lng": 76.8861683
        },
        {
          "code": "OSM:6173579390",
          "name": "Naydongri",
          "lat": 20.3492845,
          "lng": 74.8374188
        },
        {
          "code": "OSM:6794621268",
          "name": "Nekurseni",
          "lat": 22.0045544,
          "lng": 87.3057679
        },
        {
          "code": "OSM:2357594706",
          "name": "Nella",
          "lat": 31.4219793,
          "lng": 76.3974686
        },
        {
          "code": "OSM:5300620018",
          "name": "Nellikuppam",
          "lat": 11.7737083,
          "lng": 79.6699222
        },
        {
          "code": "OSM:706944559",
          "name": "Nellore",
          "lat": 14.4619736,
          "lng": 79.9902272
        },
        {
          "code": "OSM:979148803",
          "name": "Nemom",
          "lat": 8.4538721,
          "lng": 77.0104923
        },
        {
          "code": "OSM:6593154999",
          "name": "Neoli",
          "lat": 18.3874677,
          "lng": 76.3109615
        },
        {
          "code": "OSM:10244170335",
          "name": "Neri",
          "lat": 27.6884547,
          "lng": 80.3945219
        },
        {
          "code": "OSM:8999700648",
          "name": "Netra",
          "lat": 22.2084278,
          "lng": 88.2544759
        },
        {
          "code": "OSM:6131069513",
          "name": "New Delhi",
          "lat": 28.6419258,
          "lng": 77.2217499
        },
        {
          "code": "OSM:80414558",
          "name": "New Delhi",
          "lat": 28.6429888,
          "lng": 77.219318
        },
        {
          "code": "OSM:6127940832",
          "name": "New Domohani",
          "lat": 26.5694911,
          "lng": 88.7858917
        },
        {
          "code": "OSM:9380469070",
          "name": "New Giridih",
          "lat": 24.2195049,
          "lng": 86.3229784
        },
        {
          "code": "OSM:6591850967",
          "name": "New Loni",
          "lat": 18.9465424,
          "lng": 74.8657586
        },
        {
          "code": "OSM:5302069263",
          "name": "Neyveli",
          "lat": 11.5397233,
          "lng": 79.4770587
        },
        {
          "code": "OSM:6166890387",
          "name": "Nidi",
          "lat": 18.4741031,
          "lng": 73.1073063
        },
        {
          "code": "OSM:4812294082",
          "name": "Nigohi",
          "lat": 28.0992277,
          "lng": 79.8788564
        },
        {
          "code": "OSM:345195547",
          "name": "Nilokheri",
          "lat": 29.8319792,
          "lng": 76.9254714
        },
        {
          "code": "OSM:10244262975",
          "name": "Nisoi",
          "lat": 28.291068,
          "lng": 79.2378578
        },
        {
          "code": "OSM:6167498845",
          "name": "Nolbari",
          "lat": 25.9533226,
          "lng": 90.7132852
        },
        {
          "code": "OSM:1665773472",
          "name": "Noli",
          "lat": 28.7443269,
          "lng": 77.3096295
        },
        {
          "code": "OSM:1884890634",
          "name": "Nuzvid",
          "lat": 16.6501445,
          "lng": 80.9622511
        },
        {
          "code": "OSM:1193167168",
          "name": "Oel",
          "lat": 27.8309754,
          "lng": 80.7537023
        },
        {
          "code": "OSM:7389131341",
          "name": "Ollur",
          "lat": 10.4738772,
          "lng": 76.2370912
        },
        {
          "code": "OSM:6522625973",
          "name": "Ordi",
          "lat": 24.8264014,
          "lng": 74.6319933
        },
        {
          "code": "OSM:2185098222",
          "name": "Pabai",
          "lat": 23.7675213,
          "lng": 77.932037
        },
        {
          "code": "OSM:2520350322",
          "name": "Padli",
          "lat": 19.7981986,
          "lng": 73.6721291
        },
        {
          "code": "OSM:1974699691",
          "name": "Pagidipalli",
          "lat": 17.4845753,
          "lng": 78.8205898
        },
        {
          "code": "OSM:6161200234",
          "name": "Pakni",
          "lat": 17.7253954,
          "lng": 75.7790029
        },
        {
          "code": "OSM:3904027995",
          "name": "Palani",
          "lat": 10.4585914,
          "lng": 77.520288
        },
        {
          "code": "OSM:8999711341",
          "name": "Palari",
          "lat": 22.3023606,
          "lng": 79.8170083
        },
        {
          "code": "OSM:6177052053",
          "name": "Paldhi",
          "lat": 21.0223316,
          "lng": 75.4607319
        },
        {
          "code": "OSM:3283404929",
          "name": "Palej",
          "lat": 21.9205704,
          "lng": 73.0726247
        },
        {
          "code": "OSM:6414855466",
          "name": "Pali",
          "lat": 28.1766316,
          "lng": 76.4505917
        },
        {
          "code": "OSM:6179509943",
          "name": "Palia",
          "lat": 22.830363,
          "lng": 75.7994854
        },
        {
          "code": "OSM:7009706935",
          "name": "Paliba",
          "lat": 18.6605353,
          "lng": 82.6961114
        },
        {
          "code": "OSM:775174481",
          "name": "Palsi",
          "lat": 17.8120622,
          "lng": 74.1114504
        },
        {
          "code": "OSM:3754937599",
          "name": "Palsit",
          "lat": 23.1963766,
          "lng": 88.0031395
        },
        {
          "code": "OSM:1616546521",
          "name": "Palta",
          "lat": 22.7826288,
          "lng": 88.3702748
        },
        {
          "code": "OSM:3725756379",
          "name": "Palur",
          "lat": 12.766346,
          "lng": 79.9069065
        },
        {
          "code": "OSM:2965864604",
          "name": "Pamidi",
          "lat": 14.9805373,
          "lng": 77.5992844
        },
        {
          "code": "OSM:5302919555",
          "name": "Pandi",
          "lat": 10.4770734,
          "lng": 79.6154266
        },
        {
          "code": "OSM:2189395937",
          "name": "Pandoli",
          "lat": 24.86637,
          "lng": 74.3995852
        },
        {
          "code": "OSM:5396166538",
          "name": "Paneli Moti",
          "lat": 21.8737593,
          "lng": 70.1600164
        },
        {
          "code": "OSM:4963731868",
          "name": "Panki",
          "lat": 26.4595614,
          "lng": 80.2390699
        },
        {
          "code": "OSM:5566618729",
          "name": "Pardi",
          "lat": 20.5137936,
          "lng": 72.9242196
        },
        {
          "code": "OSM:6739494937",
          "name": "Patdi",
          "lat": 23.1826257,
          "lng": 71.7906049
        },
        {
          "code": "OSM:10243365035",
          "name": "Paterhi",
          "lat": 25.917719,
          "lng": 84.8007771
        },
        {
          "code": "OSM:6712656496",
          "name": "Pathauli",
          "lat": 27.1569818,
          "lng": 77.9253496
        },
        {
          "code": "OSM:3865504300",
          "name": "Pathri",
          "lat": 29.8534361,
          "lng": 78.0781149
        },
        {
          "code": "OSM:6388592702",
          "name": "Patli",
          "lat": 28.4010774,
          "lng": 76.857079
        },
        {
          "code": "OSM:1352381694",
          "name": "Patti",
          "lat": 31.2877742,
          "lng": 74.8554685
        },
        {
          "code": "OSM:1766031374",
          "name": "Patuli",
          "lat": 23.5473858,
          "lng": 88.2521117
        },
        {
          "code": "OSM:6397194247",
          "name": "Payli",
          "lat": 28.0606213,
          "lng": 74.5640217
        },
        {
          "code": "OSM:4961511851",
          "name": "Peelamedu",
          "lat": 11.0327533,
          "lng": 77.0000305
        },
        {
          "code": "OSM:10978125926",
          "name": "Pembarti",
          "lat": 17.6929583,
          "lng": 79.117144
        },
        {
          "code": "OSM:6254188156",
          "name": "Pench",
          "lat": 24.0494196,
          "lng": 76.9333407
        },
        {
          "code": "OSM:603465403",
          "name": "Pendekallu Junction",
          "lat": 15.3743039,
          "lng": 77.6485895
        },
        {
          "code": "OSM:2523216570",
          "name": "Pendurthi",
          "lat": 17.814225,
          "lng": 83.1956798
        },
        {
          "code": "OSM:8999708483",
          "name": "Peokol",
          "lat": 26.3428606,
          "lng": 83.9306761
        },
        {
          "code": "OSM:5764348902",
          "name": "Perunguzhi",
          "lat": 8.6317315,
          "lng": 76.8081619
        },
        {
          "code": "OSM:5351690322",
          "name": "Pettai",
          "lat": 8.7189347,
          "lng": 77.6537065
        },
        {
          "code": "OSM:12778201163",
          "name": "Phiding",
          "lat": 25.2052554,
          "lng": 93.1447144
        },
        {
          "code": "OSM:6172161646",
          "name": "Phulaguri",
          "lat": 26.267398,
          "lng": 92.5867626
        },
        {
          "code": "OSM:1865813382",
          "name": "Piali",
          "lat": 22.3873131,
          "lng": 88.5188879
        },
        {
          "code": "OSM:7643189311",
          "name": "Pilibhit Junction",
          "lat": 28.6157057,
          "lng": 79.8124297
        },
        {
          "code": "OSM:6355893044",
          "name": "Pilkhani",
          "lat": 29.9976497,
          "lng": 77.4731049
        },
        {
          "code": "OSM:7477176279",
          "name": "Pilkhua",
          "lat": 28.7125191,
          "lng": 77.6684448
        },
        {
          "code": "OSM:319330553",
          "name": "Pilol",
          "lat": 22.4151532,
          "lng": 73.2098796
        },
        {
          "code": "OSM:2063678247",
          "name": "Pimpalkutti",
          "lat": 19.8303055,
          "lng": 78.5807635
        },
        {
          "code": "OSM:10235556626",
          "name": "Piplai",
          "lat": 26.5084502,
          "lng": 76.5516345
        },
        {
          "code": "OSM:7105218545",
          "name": "Piplee",
          "lat": 23.8144077,
          "lng": 71.5164872
        },
        {
          "code": "OSM:5776953624",
          "name": "Pipli",
          "lat": 22.3456464,
          "lng": 69.935211
        },
        {
          "code": "OSM:5301740166",
          "name": "Polur",
          "lat": 12.5103441,
          "lng": 79.1301703
        },
        {
          "code": "OSM:4140524523",
          "name": "Pothahi",
          "lat": 25.4432695,
          "lng": 85.0836316
        },
        {
          "code": "OSM:4932368243",
          "name": "Pothia",
          "lat": 26.3107471,
          "lng": 88.1794124
        },
        {
          "code": "OSM:5282980468",
          "name": "Pudi",
          "lat": 13.5532656,
          "lng": 79.5079408
        },
        {
          "code": "OSM:2669102686",
          "name": "Puri",
          "lat": 19.8079337,
          "lng": 85.8377905
        },
        {
          "code": "OSM:1268162820",
          "name": "Raghouli",
          "lat": 25.1331779,
          "lng": 79.8897845
        },
        {
          "code": "OSM:9001314322",
          "name": "Raisi",
          "lat": 29.6928321,
          "lng": 78.0664336
        },
        {
          "code": "OSM:2429803227",
          "name": "Rajevadi",
          "lat": 18.3843334,
          "lng": 74.155524
        },
        {
          "code": "OSM:806415701",
          "name": "Rajgir",
          "lat": 25.0327006,
          "lng": 85.4150197
        },
        {
          "code": "OSM:1177114444",
          "name": "Rajoli",
          "lat": 20.1891203,
          "lng": 79.6885035
        },
        {
          "code": "OSM:6521793174",
          "name": "Rajosi",
          "lat": 26.3152111,
          "lng": 74.6668818
        },
        {
          "code": "OSM:1943846115",
          "name": "Rakhi",
          "lat": 25.6858358,
          "lng": 72.5544814
        },
        {
          "code": "OSM:566228737",
          "name": "Rakhiyal",
          "lat": 23.2541891,
          "lng": 72.8994569
        },
        {
          "code": "OSM:9033431801",
          "name": "Rakshi",
          "lat": 22.007659,
          "lng": 85.0825104
        },
        {
          "code": "OSM:353681575",
          "name": "Ramdevra",
          "lat": 27.0070434,
          "lng": 71.9301472
        },
        {
          "code": "OSM:6254188153",
          "name": "Ramri",
          "lat": 24.2456298,
          "lng": 77.0525356
        },
        {
          "code": "OSM:9234091686",
          "name": "Ranchi",
          "lat": 23.3493186,
          "lng": 85.3355688
        },
        {
          "code": "OSM:1844365249",
          "name": "Rangepalli",
          "lat": 14.0244874,
          "lng": 77.5756851
        },
        {
          "code": "OSM:2188190823",
          "name": "Rani",
          "lat": 25.3487179,
          "lng": 73.3109679
        },
        {
          "code": "OSM:6724288800",
          "name": "Ranoli",
          "lat": 22.4055821,
          "lng": 73.1128283
        },
        {
          "code": "OSM:6179371623",
          "name": "Raoti",
          "lat": 23.183751,
          "lng": 74.8795092
        },
        {
          "code": "OSM:7016119103",
          "name": "Rauli",
          "lat": 19.2308542,
          "lng": 83.1676748
        },
        {
          "code": "OSM:2962179535",
          "name": "Rechni Road",
          "lat": 19.1407198,
          "lng": 79.4516685
        },
        {
          "code": "OSM:678453419",
          "name": "Reddigudem",
          "lat": 16.4418765,
          "lng": 80.0505114
        },
        {
          "code": "OSM:2527201576",
          "name": "Regadipalli",
          "lat": 14.8144535,
          "lng": 78.1363131
        },
        {
          "code": "OSM:2185643945",
          "name": "Renhat",
          "lat": 25.9803749,
          "lng": 77.8350778
        },
        {
          "code": "OSM:6178341291",
          "name": "Rentiya",
          "lat": 22.8631017,
          "lng": 74.2106241
        },
        {
          "code": "OSM:9530552353",
          "name": "Renukoot",
          "lat": 24.2032305,
          "lng": 83.0400348
        },
        {
          "code": "OSM:718579224",
          "name": "Reoti",
          "lat": 25.8343073,
          "lng": 84.375459
        },
        {
          "code": "OSM:6235270193",
          "name": "Rithi",
          "lat": 23.9046544,
          "lng": 80.1405496
        },
        {
          "code": "OSM:6173579389",
          "name": "Rohini",
          "lat": 20.3711316,
          "lng": 74.87468
        },
        {
          "code": "OSM:9001314330",
          "name": "Rudauli",
          "lat": 26.762188,
          "lng": 81.754202
        },
        {
          "code": "OSM:6164523219",
          "name": "Rukadi",
          "lat": 16.7254247,
          "lng": 74.3585898
        },
        {
          "code": "OSM:6188291207",
          "name": "Rundhi",
          "lat": 28.067705,
          "lng": 77.3511981
        },
        {
          "code": "OSM:1944412440",
          "name": "Rupaheli",
          "lat": 25.8181728,
          "lng": 74.6400743
        },
        {
          "code": "OSM:1133695418",
          "name": "Rupai",
          "lat": 27.5998165,
          "lng": 95.5569781
        },
        {
          "code": "OSM:5568408848",
          "name": "Sachin",
          "lat": 21.0778781,
          "lng": 72.8744643
        },
        {
          "code": "OSM:1065383748",
          "name": "Sadhli",
          "lat": 21.9856387,
          "lng": 73.2908344
        },
        {
          "code": "OSM:7725464321",
          "name": "Sagardighi",
          "lat": 24.290875,
          "lng": 88.0932015
        },
        {
          "code": "OSM:3401646124",
          "name": "Saheli",
          "lat": 22.4535608,
          "lng": 77.8162861
        },
        {
          "code": "OSM:2040990334",
          "name": "Salaia",
          "lat": 23.847144,
          "lng": 79.9707502
        },
        {
          "code": "OSM:7851355537",
          "name": "Salaia",
          "lat": 24.2089507,
          "lng": 86.2568943
        },
        {
          "code": "OSM:714908000",
          "name": "Salbari",
          "lat": 26.5457384,
          "lng": 89.104758
        },
        {
          "code": "OSM:1325431557",
          "name": "Salboni",
          "lat": 22.6396493,
          "lng": 87.3213721
        },
        {
          "code": "OSM:2188101126",
          "name": "Sali",
          "lat": 26.7064414,
          "lng": 75.0320355
        },
        {
          "code": "OSM:6759458893",
          "name": "Saljida",
          "lat": 22.7847862,
          "lng": 72.3977349
        },
        {
          "code": "OSM:760305363",
          "name": "Salmari",
          "lat": 25.615731,
          "lng": 87.8376402
        },
        {
          "code": "OSM:6163560438",
          "name": "Salpa",
          "lat": 17.9630225,
          "lng": 74.1712824
        },
        {
          "code": "OSM:1491590458",
          "name": "Salur",
          "lat": 18.5271586,
          "lng": 83.2062447
        },
        {
          "code": "OSM:2913390278",
          "name": "Salwa",
          "lat": 21.2362496,
          "lng": 79.2929081
        },
        {
          "code": "OSM:4517490356",
          "name": "Samhon",
          "lat": 26.7343157,
          "lng": 79.3207289
        },
        {
          "code": "OSM:2042476644",
          "name": "Samloti",
          "lat": 32.0923481,
          "lng": 76.3448669
        },
        {
          "code": "OSM:2516042801",
          "name": "Samsi",
          "lat": 25.276269,
          "lng": 88.0101183
        },
        {
          "code": "OSM:1124758497",
          "name": "Sanchi",
          "lat": 23.4876339,
          "lng": 77.7360676
        },
        {
          "code": "OSM:1404484021",
          "name": "Sangli",
          "lat": 16.8584407,
          "lng": 74.5880836
        },
        {
          "code": "OSM:6633918493",
          "name": "Sangvi",
          "lat": 20.4190288,
          "lng": 77.6018744
        },
        {
          "code": "OSM:1730967730",
          "name": "Saongi",
          "lat": 21.7968548,
          "lng": 79.9980079
        },
        {
          "code": "OSM:12097812007",
          "name": "Sapekhati",
          "lat": 27.1106702,
          "lng": 95.1620903
        },
        {
          "code": "OSM:3906434832",
          "name": "Sarai",
          "lat": 25.7804771,
          "lng": 85.2767051
        },
        {
          "code": "OSM:8412666007",
          "name": "Sarai",
          "lat": 25.7804924,
          "lng": 85.2767064
        },
        {
          "code": "OSM:1944412441",
          "name": "Sareri",
          "lat": 25.6979,
          "lng": 74.6242709
        },
        {
          "code": "OSM:4840545685",
          "name": "Sarju",
          "lat": 27.1117719,
          "lng": 81.6350483
        },
        {
          "code": "OSM:2088344341",
          "name": "Sarsi",
          "lat": 25.863316,
          "lng": 87.285218
        },
        {
          "code": "OSM:9001314320",
          "name": "Sasni",
          "lat": 27.7036524,
          "lng": 78.1222022
        },
        {
          "code": "OSM:8175791143",
          "name": "Sathi",
          "lat": 27.0158533,
          "lng": 84.5040314
        },
        {
          "code": "OSM:1020068976",
          "name": "Sathiaon",
          "lat": 26.0344068,
          "lng": 83.2873451
        },
        {
          "code": "OSM:6093198365",
          "name": "Saunshi",
          "lat": 15.2033507,
          "lng": 75.3005792
        },
        {
          "code": "OSM:6161287654",
          "name": "Savalgi",
          "lat": 17.3396908,
          "lng": 76.710754
        },
        {
          "code": "OSM:317049926",
          "name": "Savli",
          "lat": 22.555925,
          "lng": 73.2272125
        },
        {
          "code": "OSM:6765731677",
          "name": "Savni",
          "lat": 20.9628238,
          "lng": 70.4493739
        },
        {
          "code": "OSM:12189351683",
          "name": "Seawoods",
          "lat": 19.0218192,
          "lng": 73.0191588
        },
        {
          "code": "OSM:6051358137",
          "name": "Sekha",
          "lat": 30.379845,
          "lng": 75.6437874
        },
        {
          "code": "OSM:1416331544",
          "name": "Selu",
          "lat": 19.4483588,
          "lng": 76.4333922
        },
        {
          "code": "OSM:2185619770",
          "name": "Semai",
          "lat": 26.2854986,
          "lng": 77.5239273
        },
        {
          "code": "OSM:2189470637",
          "name": "Semari",
          "lat": 24.0700696,
          "lng": 73.8418371
        },
        {
          "code": "OSM:8999700653",
          "name": "Semra",
          "lat": 26.7120883,
          "lng": 84.8140535
        },
        {
          "code": "OSM:1471841718",
          "name": "Seoni",
          "lat": 22.0750701,
          "lng": 79.5458969
        },
        {
          "code": "OSM:2346871982",
          "name": "Sepon",
          "lat": 27.1144283,
          "lng": 94.8532408
        },
        {
          "code": "OSM:8999708482",
          "name": "Sethal",
          "lat": 28.5413488,
          "lng": 79.5630396
        },
        {
          "code": "OSM:5286945821",
          "name": "Sevur",
          "lat": 12.9718001,
          "lng": 79.1901017
        },
        {
          "code": "OSM:700886180",
          "name": "Sewri",
          "lat": 18.9987796,
          "lng": 72.8544218
        },
        {
          "code": "OSM:1339609882",
          "name": "Shahdol",
          "lat": 23.2859237,
          "lng": 81.3648409
        },
        {
          "code": "OSM:4775718589",
          "name": "Shahi",
          "lat": 28.5859255,
          "lng": 79.6857993
        },
        {
          "code": "OSM:1078212032",
          "name": "Shelu",
          "lat": 19.063516,
          "lng": 73.3179261
        },
        {
          "code": "OSM:6593086279",
          "name": "Shendri",
          "lat": 18.1494063,
          "lng": 75.5902361
        },
        {
          "code": "OSM:6177052314",
          "name": "Shendurni",
          "lat": 20.6574319,
          "lng": 75.5974594
        },
        {
          "code": "OSM:6163683875",
          "name": "Shenoli",
          "lat": 17.2011706,
          "lng": 74.2520559
        },
        {
          "code": "OSM:4320718979",
          "name": "Shewbabudih",
          "lat": 23.6598587,
          "lng": 86.3901103
        },
        {
          "code": "OSM:1008185895",
          "name": "Shoghi",
          "lat": 31.0390358,
          "lng": 77.1247482
        },
        {
          "code": "OSM:600364202",
          "name": "Siddampalli",
          "lat": 13.1598669,
          "lng": 79.1371192
        },