{
  "code": "KZ",
  "name": "Kazakhstan",
  "cities": {
    "Almaty": {
      "plane": [
        {
          "code": "ALA",
          "name": "Almaty International Airport",
          "lat": 43.354267,
          "lng": 77.042828
        },
        {
          "code": "BXH",
          "name": "Balkhash Airport",
          "lat": 46.894246,
          "lng": 75.004533
        },
        {
          "code": "PLX",
          "name": "Semey Airport",
          "lat": 50.351295,
          "lng": 80.234398
        }
      ],
      "train": [],
      "bus": []
    },
    "Shymkent": {
      "plane": [
        {
          "code": "CIT",
          "name": "Shymkent Airport",
          "lat": 42.364200592041016,
          "lng": 69.47889709472656
        }
      ],
      "train": [],
      "bus": []
    },
    "Nur-Sultan": {
      "plane": [],
      "train": [],
      "bus": []
    },
    "Qaraghandy": {
      "plane": [
        {
          "code": "KGF",
          "name": "Sary-Arka Airport",
          "lat": 49.670799,
          "lng": 73.334396
        }
      ],
      "train": [],
      "bus": []
    },
    "East Kazakhstan": {
      "plane": [
        {
          "code": "UKK",
          "name": "Ust-Kamenogorsk Airport",
          "lat": 50.036571,
          "lng": 82.493477
        }
      ],
      "train": [],
      "bus": []
    },
    "Aqtöbe": {
      "plane": [
        {
          "code": "AKX",
          "name": "Aktobe Airport",
          "lat": 50.2458,
          "lng": 57.206699
        }
      ],
      "train": [],
      "bus": []
    },
    "Zhambyl": {
      "plane": [
        {
          "code": "USJ",
          "name": "Usharal Airport",
          "lat": 46.190767,
          "lng": 80.830922
        },
        {
          "code": "DZN",
          "name": "Zhezkazgan National Airport",
          "lat": 47.708953,
          "lng": 67.738094
        }
      ],
      "train": [],
      "bus": []
    },
    "Abay": {
      "plane": [
        {
          "code": "SCO",
          "name": "Aktau Airport",
          "lat": 43.860093,
          "lng": 51.09086
        },
        {
          "code": "DMB",
          "name": "Taraz Airport",
          "lat": 42.853599548339844,
          "lng": 71.30359649658203
        },
        {
          "code": "URA",
          "name": "Uralsk Airport",
          "lat": 51.15079879760742,
          "lng": 51.54309844970703
        },
        {
          "code": "SZI",
          "name": "Zaysan Airport",
          "lat": 47.487491,
          "lng": 84.887675
        }
      ],
      "train": [],
      "bus": []
    },
    "Pavlodar": {
      "plane": [
        {
          "code": "PWQ",
          "name": "Pavlodar Airport",
          "lat": 52.19499969482422,
          "lng": 77.07389831542969
        },
        {
          "code": "PPK",
          "name": "Petropavl Airport",
          "lat": 54.774702,
          "lng": 69.183273
        }
      ],
      "train": [],
      "bus": []
    },
    "Türkistan": {
      "plane": [
        {
          "code": "HSA",
          "name": "Hazrat Sultan International Airport",
          "lat": 43.313126,
          "lng": 68.549881
        },
        {
          "code": "TDK",
          "name": "Taldykorgan Airport",
          "lat": 45.12255,
          "lng": 78.442758
        }
      ],
      "train": [],
      "bus": []
    },
    "Qyzylorda": {
      "plane": [
        {
          "code": "KZO",
          "name": "Kyzylorda Airport",
          "lat": 44.706902,
          "lng": 65.592499
        }
      ],
      "train": [],
      "bus": []
    },
    "West Kazakhstan": {
      "plane": [],
      "train": [],
      "bus": []
    },
    "Qostanay": {
      "plane": [
        {
          "code": "KOV",
          "name": "Kokshetau Airport",
          "lat": 53.329102,
          "lng": 69.594597
        },
        {
          "code": "KSN",
          "name": "Kostanay West Airport",
          "lat": 53.20690155029297,
          "lng": 63.55030059814453
        },
        {
          "code": "NQZ",
          "name": "Nursultan Nazarbayev International Airport",
          "lat": 51.027035,
          "lng": 71.467094
        }
      ],
      "train": [],
      "bus": []
    },
    "North Kazakhstan": {
      "plane": [],
      "train": [],
      "bus": []
    },
    "Aqmola": {
      "plane": [],
      "train": [],
      "bus": []
    },
    "Mangghystaū": {
      "plane": [],
      "train": [],
      "bus": []
    },
    "Atyraū": {
      "plane": [
        {
          "code": "GUW",
          "name": "Atyrau International Airport",
          "lat": 47.122559,
          "lng": 51.819321
        }
      ],
      "train": [],
      "bus": []
    },
    "Ulytaū": {
      "plane": [
        {
          "code": "UZR",
          "name": "Urzhar Airport",
          "lat": 47.09115,
          "lng": 81.66521
        }
      ],
      "train": [],
      "bus": []
    },
    "Zhetisū": {
      "plane": [],
      "train": [],
      "bus": []
    }
  },
  "meta": {
    "source": {
      "airports": "OurAirports (airports.csv, filtered: scheduled_service=yes, civil)",
      "train": "OpenStreetMap (railway=station/public_transport=station train=yes)",
      "bus": "OpenStreetMap (amenity=bus_station/public_transport=station bus=yes)"
    },
    "generatedAt": "2025-09-02T08:32:30.725Z"
  }
}