{
  "code": "LC",
  "name": "Saint Lucia",
  "cities": {
    "Castries": {
      "plane": [
        {
          "code": "SLU",
          "name": "George F. L. Charles Airport",
          "lat": 14.0202,
          "lng": -60.992901
        }
      ],
      "train": [],
      "bus": [
        {
          "code": "OSM:4003018259",
          "name": "Castries to Odsan/Cul-de-Sac BusStand",
          "lat": 14.0103239,
          "lng": -60.9897727
        },
        {
          "code": "OSM:392775209",
          "name": "Grand Rivier Bus Stand",
          "lat": 14.0111181,
          "lng": -60.9881964
        },
        {
          "code": "OSM:1245128647",
          "name": "Soufriére Bus Station",
          "lat": 13.8558452,
          "lng": -61.0598148
        },
        {
          "code": "OSM:7126427684",
          "name": "Soufrière Bus Station",
          "lat": 13.8558002,
          "lng": -61.0597982
        }
      ]
    },
    "Gros-Islet": {
      "plane": [],
      "train": [],
      "bus": [
        {
          "code": "OSM:4031338790",
          "name": "Dennery Bus Stand",
          "lat": 14.0095026,
          "lng": -60.9921287
        },
        {
          "code": "OSM:392775201",
          "name": "Gros Islet Bus Terminal (1A)",
          "lat": 14.0125775,
          "lng": -60.9876619
        }
      ]
    },
    "Micoud": {
      "plane": [],
      "train": [],
      "bus": [
        {
          "code": "OSM:4031384578",
          "name": "Bexon/ Marc Bus Stand",
          "lat": 14.011188,
          "lng": -60.9884528
        },
        {
          "code": "OSM:4031328744",
          "name": "Millet/Varnard Bus Stand",
          "lat": 14.0087607,
          "lng": -60.9921726
        }
      ]
    },
    "Vieux-Fort": {
      "plane": [
        {
          "code": "UVF",
          "name": "Hewanorra International Airport",
          "lat": 13.7332,
          "lng": -60.952599
        }
      ],
      "train": [],
      "bus": [
        {
          "code": "OSM:4007498993",
          "name": "Vieux Fort to Laborie/Choisuel",
          "lat": 13.7315069,
          "lng": -60.9527785
        }
      ]
    }
  },
  "meta": {
    "source": {
      "airports": "OurAirports (airports.csv, filtered: scheduled_service=yes, civil)",
      "train": "OpenStreetMap (railway=station/public_transport=station train=yes)",
      "bus": "OpenStreetMap (amenity=bus_station/public_transport=station bus=yes)"
    },
    "generatedAt": "2025-09-02T08:49:13.567Z"
  }
}