{
  "code": "LY",
  "name": "Libya",
  "cities": {
    "Ţarābulus": {
      "plane": [],
      "train": [],
      "bus": []
    },
    "Banghāzī": {
      "plane": [
        {
          "code": "BEN",
          "name": "Benina International Airport",
          "lat": 32.096802,
          "lng": 20.269501
        }
      ],
      "train": [],
      "bus": []
    },
    "Al Wāḩāt": {
      "plane": [],
      "train": [],
      "bus": []
    },
    "Mişrātah": {
      "plane": [
        {
          "code": "MRA",
          "name": "Misrata International Airport",
          "lat": 32.325001,
          "lng": 15.061
        }
      ],
      "train": [],
      "bus": []
    },
    "Al Jabal al Akhḑar": {
      "plane": [],
      "train": [],
      "bus": []
    },
    "Al Marqab": {
      "plane": [],
      "train": [],
      "bus": []
    },
    "Az Zāwiyah": {
      "plane": [],
      "train": [],
      "bus": []
    },
    "Al Jabal al Gharbī": {
      "plane": [],
      "train": [],
      "bus": []
    },
    "Al Marj": {
      "plane": [],
      "train": [],
      "bus": []
    },
    "Al Buţnān": {
      "plane": [],
      "train": [],
      "bus": []
    },
    "Sabhā": {
      "plane": [
        {
          "code": "SEB",
          "name": "Sabha Airport",
          "lat": 26.992452,
          "lng": 14.466162
        }
      ],
      "train": [],
      "bus": []
    },
    "An Nuqāţ al Khams": {
      "plane": [],
      "train": [],
      "bus": []
    },
    "Darnah": {
      "plane": [],
      "train": [],
      "bus": []
    },
    "Al Jafārah": {
      "plane": [
        {
          "code": "LAQ",
          "name": "Al Abraq International Airport",
          "lat": 32.7887,
          "lng": 21.9643
        }
      ],
      "train": [],
      "bus": []
    },
    "Surt": {
      "plane": [
        {
          "code": "AKF",
          "name": "Kufra Airport",
          "lat": 24.178699493408203,
          "lng": 23.31399917602539
        }
      ],
      "train": [],
      "bus": []
    },
    "Nālūt": {
      "plane": [],
      "train": [],
      "bus": []
    },
    "Wādī ash Shāţi’": {
      "plane": [],
      "train": [],
      "bus": []
    },
    "Murzuq": {
      "plane": [],
      "train": [],
      "bus": []
    },
    "Wādī al Ḩayāt": {
      "plane": [],
      "train": [],
      "bus": []
    },
    "Al Jufrah": {
      "plane": [],
      "train": [],
      "bus": []
    },
    "Ghāt": {
      "plane": [
        {
          "code": "GHT",
          "name": "Ghat Airport",
          "lat": 25.1455993652,
          "lng": 10.142600059500001
        },
        {
          "code": "TOB",
          "name": "Tobruk International Airport",
          "lat": 31.861,
          "lng": 23.907
        }
      ],
      "train": [],
      "bus": []
    },
    "Al Kufrah": {
      "plane": [],
      "train": [],
      "bus": []
    }
  },
  "meta": {
    "source": {
      "airports": "OurAirports (airports.csv, filtered: scheduled_service=yes, civil)",
      "train": "OpenStreetMap (railway=station/public_transport=station train=yes)",
      "bus": "OpenStreetMap (amenity=bus_station/public_transport=station bus=yes)"
    },
    "generatedAt": "2025-09-02T08:38:25.097Z"
  }
}