{
  "code": "MX",
  "name": "Mexico",
  "cities": {
    "Ciudad de México": {
      "plane": [
        {
          "code": "CJS",
          "name": "Abraham González International Airport",
          "lat": 31.63610076904297,
          "lng": -106.42900085449219
        },
        {
          "code": "MEX",
          "name": "Benito Juárez International Airport",
          "lat": 19.435137,
          "lng": -99.071328
        },
        {
          "code": "CME",
          "name": "Ciudad del Carmen International Airport",
          "lat": 18.65369987487793,
          "lng": -91.79900360107422
        },
        {
          "code": "CEN",
          "name": "Ciudad Obregón International Airport",
          "lat": 27.39259910583496,
          "lng": -109.83300018310547
        },
        {
          "code": "CVM",
          "name": "General Pedro Jose Mendez International Airport",
          "lat": 23.7033004761,
          "lng": -98.9564971924
        }
      ],
      "train": [],
      "bus": []
    },
    "Jalisco": {
      "plane": [
        {
          "code": "HUX",
          "name": "Bahías de Huatulco International Airport",
          "lat": 15.774909,
          "lng": -96.260319
        },
        {
          "code": "ACA",
          "name": "General Juan N. Álvarez International Airport",
          "lat": 16.757126,
          "lng": -99.753113
        },
        {
          "code": "ZLO",
          "name": "Playa de Oro International Airport",
          "lat": 19.1448,
          "lng": -104.558998
        }
      ],
      "train": [],
      "bus": []
    },
    "Nuevo León": {
      "plane": [
        {
          "code": "PXM",
          "name": "Puerto Escondido International Airport",
          "lat": 15.876808,
          "lng": -97.0891
        },
        {
          "code": "PVR",
          "name": "Puerto Vallarta International Airport",
          "lat": 20.679913,
          "lng": -105.254391
        },
        {
          "code": "NLD",
          "name": "Quetzalcóatl International Airport",
          "lat": 27.443899,
          "lng": -99.570503
        }
      ],
      "train": [],
      "bus": []
    },
    "México": {
      "plane": [
        {
          "code": "TPQ",
          "name": "Amado Nervo National Airport",
          "lat": 21.419833,
          "lng": -104.842472
        },
        {
          "code": "NLU",
          "name": "General Felipe Ángeles International Airport",
          "lat": 19.7357,
          "lng": -99.0257
        },
        {
          "code": "HMO",
          "name": "General Ignacio P. Garcia International Airport",
          "lat": 29.093527,
          "lng": -111.049891
        },
        {
          "code": "MXL",
          "name": "General Rodolfo Sánchez Taboada International Airport",
          "lat": 32.630629,
          "lng": -115.242805
        },
        {
          "code": "MID",
          "name": "Manuel Crescencio Rejón International Airport",
          "lat": 20.930485,
          "lng": -89.645462
        },
        {
          "code": "SRL",
          "name": "Palo Verde Airport",
          "lat": 27.0927,
          "lng": -112.0985
        }
      ],
      "train": [],
      "bus": []
    },
    "Baja California": {
      "plane": [],
      "train": [],
      "bus": []
    },
    "Guanajuato": {
      "plane": [
        {
          "code": "GDL",
          "name": "Guadalajara International Airport",
          "lat": 20.523342,
          "lng": -103.310108
        },
        {
          "code": "GUB",
          "name": "Guerrero Negro Airport",
          "lat": 28.0261,
          "lng": -114.024002
        }
      ],
      "train": [],
      "bus": []
    },
    "Puebla": {
      "plane": [
        {
          "code": "GYM",
          "name": "General José María Yáñez International Airport",
          "lat": 27.9689998626709,
          "lng": -110.92500305175781
        },
        {
          "code": "PBC",
          "name": "Hermanos Serdán International Airport",
          "lat": 19.158465,
          "lng": -98.371582
        }
      ],
      "train": [],
      "bus": []
    },
    "Chihuahua": {
      "plane": [
        {
          "code": "TIJ",
          "name": "General Abelardo L. Rodriguez International Airport",
          "lat": 32.541043,
          "lng": -116.969976
        },
        {
          "code": "CUU",
          "name": "General Roberto Fierro Villalobos International Airport",
          "lat": 28.7029,
          "lng": -105.964996
        }
      ],
      "train": [],
      "bus": []
    },
    "Michoacán": {
      "plane": [],
      "train": [],
      "bus": []
    },
    "Aguascalientes": {
      "plane": [
        {
          "code": "AGU",
          "name": "Jesús Terán Peredo International Airport",
          "lat": 21.699589,
          "lng": -102.318372
        }
      ],
      "train": [],
      "bus": []
    },
    "Yucatán": {
      "plane": [
        {
          "code": "CUL",
          "name": "Bachigualato Federal International Airport",
          "lat": 24.76504,
          "lng": -107.475228
        },
        {
          "code": "MM52",
          "name": "Camaguey-Campo Cuatro Milpas Airport",
          "lat": 25.652200698853,
          "lng": -108.53800201416
        },
        {
          "code": "CUN",
          "name": "Cancún International Airport",
          "lat": 21.039444,
          "lng": -86.874304
        },
        {
          "code": "MZT",
          "name": "General Rafael Buelna International Airport",
          "lat": 23.161474,
          "lng": -106.264572
        },
        {
          "code": "UPN",
          "name": "Uruapan - Licenciado y General Ignacio Lopez Rayon International Airport",
          "lat": 19.3967,
          "lng": -102.039001
        }
      ],
      "train": [],
      "bus": []
    },
    "Quintana Roo": {
      "plane": [],
      "train": [],
      "bus": []
    },
    "Coahuila": {
      "plane": [
        {
          "code": "PAZ",
          "name": "El Tajín National Airport",
          "lat": 20.6026992798,
          "lng": -97.46080017090001
        },
        {
          "code": "MM10",
          "name": "Isla Cedros Airport",
          "lat": 28.039031,
          "lng": -115.189419
        },
        {
          "code": "TAP",
          "name": "Tapachula International Airport",
          "lat": 14.794549,
          "lng": -92.369871
        }
      ],
      "train": [],
      "bus": []
    },
    "Sonora": {
      "plane": [
        {
          "code": "CUA",
          "name": "Ciudad Constitución National Airport",
          "lat": 25.053801,
          "lng": -111.614998
        },
        {
          "code": "REX",
          "name": "General Lucio Blanco International Airport",
          "lat": 26.0089,
          "lng": -98.2285
        },
        {
          "code": "MTY",
          "name": "Monterrey International Airport",
          "lat": 25.778521,
          "lng": -100.106989
        },
        {
          "code": "PDS",
          "name": "Piedras Negras International Airport",
          "lat": 28.627873,
          "lng": -100.53524
        }
      ],
      "train": [],
      "bus": []
    },
    "Sinaloa": {
      "plane": [
        {
          "code": "VSA",
          "name": "Carlos Rovirosa Pérez International Airport",
          "lat": 17.997,
          "lng": -92.817398
        },
        {
          "code": "BJX",
          "name": "Del Bajío International Airport",
          "lat": 20.992695,
          "lng": -101.480284
        }
      ],
      "train": [],
      "bus": []
    },
    "Querétaro": {
      "plane": [
        {
          "code": "PPE",
          "name": "Mar de Cortés International Airport",
          "lat": 31.351987,
          "lng": -113.305177
        },
        {
          "code": "QRO",
          "name": "Querétaro Intercontinental Airport",
          "lat": 20.6173,
          "lng": -100.185997
        }
      ],
      "train": [],
      "bus": []
    },
    "San Luis Potosí": {
      "plane": [
        {
          "code": "SJD",
          "name": "Los Cabos International Airport",
          "lat": 23.151919,
          "lng": -109.720731
        },
        {
          "code": "SLP",
          "name": "Ponciano Arriaga International Airport",
          "lat": 22.254299163800003,
          "lng": -100.930999756
        }
      ],
      "train": [],
      "bus": []
    },
    "Guerrero": {
      "plane": [
        {
          "code": "TGZ",
          "name": "Angel Albino Corzo International Airport",
          "lat": 16.5636005402,
          "lng": -93.02249908450001
        }
      ],
      "train": [],
      "bus": []
    },
    "Durango": {
      "plane": [
        {
          "code": "DGO",
          "name": "General Guadalupe Victoria International Airport",
          "lat": 24.125468,
          "lng": -104.527938
        }
      ],
      "train": [],
      "bus": []
    },
    "Tamaulipas": {
      "plane": [
        {
          "code": "MMSL",
          "name": "Cabo San Lucas International Airport",
          "lat": 22.948211,
          "lng": -109.938155
        }
      ],
      "train": [],
      "bus": []
    },
    "Chiapas": {
      "plane": [
        {
          "code": "CTM",
          "name": "Chetumal International Airport",
          "lat": 18.504985,
          "lng": -88.328018
        },
        {
          "code": "ZIH",
          "name": "Ixtapa-Zihuatanejo International Airport",
          "lat": 17.601771,
          "lng": -101.460629
        },
        {
          "code": "LAP",
          "name": "Manuel Márquez de León International Airport",
          "lat": 24.072701,
          "lng": -110.362
        }
      ],
      "train": [],
      "bus": []
    },
    "Veracruz": {
      "plane": [
        {
          "code": "VER",
          "name": "General Heriberto Jara International Airport",
          "lat": 19.1459007263,
          "lng": -96.1873016357
        }
      ],
      "train": [],
      "bus": []
    },
    "Nayarit": {
      "plane": [
        {
          "code": "MX-0203",
          "name": "Cedros Airport",
          "lat": 24.6353,
          "lng": -101.79655
        },
        {
          "code": "MAM",
          "name": "General Servando Canales International Airport",
          "lat": 25.7698993683,
          "lng": -97.5252990723
        }
      ],
      "train": [],
      "bus": []
    },
    "Tabasco": {
      "plane": [
        {
          "code": "MX-0687",
          "name": "Agricola La Tuxcana Airport",
          "lat": 19.729351,
          "lng": -103.977854
        },
        {
          "code": "TAM",
          "name": "General Francisco Javier Mina International Airport",
          "lat": 22.2964000702,
          "lng": -97.8658981323
        }
      ],
      "train": [],
      "bus": []
    },
    "Morelos": {
      "plane": [
        {
          "code": "TRC",
          "name": "Francisco Sarabia Tinoco International Airport",
          "lat": 25.5683,
          "lng": -103.411003
        },
        {
          "code": "MLM",
          "name": "General Francisco J. Mujica International Airport",
          "lat": 19.849899,
          "lng": -101.025002
        },
        {
          "code": "LTO",
          "name": "Loreto International Airport",
          "lat": 25.989200592041016,
          "lng": -111.3479995727539
        },
        {
          "code": "LMM",
          "name": "Valle del Fuerte International Airport",
          "lat": 25.685447,
          "lng": -109.081055
        }
      ],
      "train": [],
      "bus": []
    },
    "Oaxaca": {
      "plane": [
        {
          "code": "MTT",
          "name": "Minatitlán/Coatzacoalcos International Airport",
          "lat": 18.103399,
          "lng": -94.580704
        },
        {
          "code": "OAX",
          "name": "Xoxocotlán International Airport",
          "lat": 17.000814,
          "lng": -96.72197
        }
      ],
      "train": [],
      "bus": []
    },
    "Hidalgo": {
      "plane": [],
      "train": [],
      "bus": []
    },
    "Baja California Sur": {
      "plane": [],
      "train": [],
      "bus": []
    },
    "Campeche": {
      "plane": [
        {
          "code": "CPE",
          "name": "Ingeniero Alberto Acuña Ongay International Airport",
          "lat": 19.816799163800003,
          "lng": -90.5002975464
        }
      ],
      "train": [],
      "bus": []
    },
    "Zacatecas": {
      "plane": [
        {
          "code": "ZCL",
          "name": "General Leobardo C. Ruiz International Airport",
          "lat": 22.8971,
          "lng": -102.686996
        }
      ],
      "train": [],
      "bus": []
    },
    "Colima": {
      "plane": [
        {
          "code": "TLC",
          "name": "Adolfo López Mateos International Airport",
          "lat": 19.3369,
          "lng": -99.56583
        },
        {
          "code": "CZM",
          "name": "Cozumel International Airport",
          "lat": 20.514922,
          "lng": -86.928538
        },
        {
          "code": "TQO",
          "name": "Felipe Carrillo Puerto International Airport",
          "lat": 20.172098,
          "lng": -87.660272
        },
        {
          "code": "CLQ",
          "name": "Licenciado Miguel de la Madrid International Airport",
          "lat": 19.277,
          "lng": -103.577002
        }
      ],
      "train": [],
      "bus": []
    },
    "Tlaxcala": {
      "plane": [],
      "train": [],
      "bus": []
    }
  },
  "meta": {
    "source": {
      "airports": "OurAirports (airports.csv, filtered: scheduled_service=yes, civil)",
      "train": "OpenStreetMap (railway=station/public_transport=station train=yes)",
      "bus": "OpenStreetMap (amenity=bus_station/public_transport=station bus=yes)"
    },
    "generatedAt": "2025-09-02T08:16:00.692Z"
  }
}