{
  "code": "MY",
  "name": "Malaysia",
  "cities": {
    "Kuala Lumpur": {
      "plane": [],
      "train": [
        {
          "code": "OSM:8869092775",
          "name": "Bunut Susu",
          "lat": 6.0944933,
          "lng": 102.1744239
        },
        {
          "code": "OSM:11768067233",
          "name": "Bunut Susu",
          "lat": 6.0945157,
          "lng": 102.1743794
        },
        {
          "code": "OSM:1161395359",
          "name": "KA02 Kuala Lumpur",
          "lat": 3.1407861,
          "lng": 101.6937672
        },
        {
          "code": "OSM:24375048",
          "name": "KA04 Putra",
          "lat": 3.1655602,
          "lng": 101.6907926
        },
        {
          "code": "OSM:24375078",
          "name": "KA05 Segambut",
          "lat": 3.1864397,
          "lng": 101.6641992
        },
        {
          "code": "OSM:1073736705",
          "name": "KA08 Sungai Buloh",
          "lat": 3.2062441,
          "lng": 101.5799923
        },
        {
          "code": "OSM:278191029",
          "name": "KA14 Kuala Kubu Bharu",
          "lat": 3.5531986,
          "lng": 101.639528
        },
        {
          "code": "OSM:4524260193",
          "name": "KA15 Tanjung Malim",
          "lat": 3.6847662,
          "lng": 101.5182472
        },
        {
          "code": "OSM:9263988171",
          "name": "Kampung Kok Pasir",
          "lat": 6.1629407,
          "lng": 102.2077717
        },
        {
          "code": "OSM:11768067248",
          "name": "Kampung Kok Pasir",
          "lat": 6.1629864,
          "lng": 102.2077795
        },
        {
          "code": "OSM:304754809",
          "name": "KB09 Batang Benar",
          "lat": 2.8304531,
          "lng": 101.8269981
        },
        {
          "code": "OSM:257615501",
          "name": "KC03 Kampung Batu",
          "lat": 3.2047999,
          "lng": 101.6756422
        },
        {
          "code": "OSM:257615503",
          "name": "KC04 Taman Wahyu",
          "lat": 3.2144933,
          "lng": 101.6721874
        },
        {
          "code": "OSM:570633024",
          "name": "KD01 Abdullah Hukum",
          "lat": 3.1188639,
          "lng": 101.6732668
        },
        {
          "code": "OSM:1031964080",
          "name": "KD02 Angkasapuri",
          "lat": 3.1126853,
          "lng": 101.6734378
        },
        {
          "code": "OSM:257615492",
          "name": "KD05 Jalan Templer",
          "lat": 3.0834687,
          "lng": 101.656498
        },
        {
          "code": "OSM:257615487",
          "name": "KD15 Teluk Pulai",
          "lat": 3.0408625,
          "lng": 101.4320957
        },
        {
          "code": "OSM:6997825867",
          "name": "Kuala Gris",
          "lat": 5.3903256,
          "lng": 102.0642757
        },
        {
          "code": "OSM:455456041",
          "name": "Kuala Kangsar",
          "lat": 4.7762414,
          "lng": 100.9318851
        },
        {
          "code": "OSM:2630742717",
          "name": "Kuala Krai",
          "lat": 5.5298891,
          "lng": 102.2029412
        },
        {
          "code": "OSM:12753613689",
          "name": "Kuala Krai",
          "lat": 5.52993,
          "lng": 102.2030684
        },
        {
          "code": "OSM:2630937599",
          "name": "Kuala Krau",
          "lat": 3.7096171,
          "lng": 102.366999
        },
        {
          "code": "OSM:1854812005",
          "name": "Kuala Lipis",
          "lat": 4.1865285,
          "lng": 102.0537253
        },
        {
          "code": "OSM:11633142270",
          "name": "Kuala Lipis",
          "lat": 4.1867226,
          "lng": 102.0535741
        },
        {
          "code": "OSM:3266548958",
          "name": "Limau Kasturi",
          "lat": 5.0794378,
          "lng": 102.0694226
        },
        {
          "code": "OSM:12753613691",
          "name": "Limau Kasturi",
          "lat": 5.0791353,
          "lng": 102.0693252
        },
        {
          "code": "OSM:455466819",
          "name": "Sungai Siput",
          "lat": 4.8188086,
          "lng": 101.071298
        },
        {
          "code": "OSM:2630769267",
          "name": "Sungai Temau",
          "lat": 4.4898674,
          "lng": 101.9447127
        }
      ],
      "bus": [
        {
          "code": "OSM:1359801757",
          "name": "1 Utama City Bus Hub",
          "lat": 3.1513477,
          "lng": 101.613286
        },
        {
          "code": "OSM:1214119419",
          "name": "Awana SkyCentral",
          "lat": 3.4044783,
          "lng": 101.7831408
        },
        {
          "code": "OSM:5013045222",
          "name": "Bus K21 to Kubah National Park",
          "lat": 1.5580562,
          "lng": 110.3420313
        },
        {
          "code": "OSM:10588065121",
          "name": "Hab Lebuh Pudu (LP)",
          "lat": 3.1470718,
          "lng": 101.6980609
        },
        {
          "code": "OSM:2677292823",
          "name": "Hab Lebuh Pudu (TP)",
          "lat": 3.1467318,
          "lng": 101.6986534
        },
        {
          "code": "OSM:10594592099",
          "name": "Hab Lebuh Pudu (TSS)",
          "lat": 3.1463117,
          "lng": 101.6983168
        },
        {
          "code": "OSM:4725852689",
          "name": "Hentian Bas Kuala Rompin",
          "lat": 2.800497,
          "lng": 103.4862412
        },
        {
          "code": "OSM:1026830200",
          "name": "Hentian Raya Parit Buntar",
          "lat": 5.1181243,
          "lng": 100.487122
        },
        {
          "code": "OSM:11516281236",
          "name": "Kolej Komuniti Bandar Penawar",
          "lat": 1.5633917,
          "lng": 104.2197794
        },
        {
          "code": "OSM:11635565297",
          "name": "Kompleks Chai Leng Intercity Bus",
          "lat": 5.3815946,
          "lng": 100.3938118
        },
        {
          "code": "OSM:12992986641",
          "name": "Lintang Jalong Omnibus",
          "lat": 4.8203871,
          "lng": 101.0726768
        },
        {
          "code": "OSM:4450057790",
          "name": "Minivan to Ranau & Kinabalu NP (25RM)",
          "lat": 5.9805449,
          "lng": 116.0762465
        },
        {
          "code": "OSM:11053906451",
          "name": "Salam Bumimas Express",
          "lat": 5.0217653,
          "lng": 118.3195869
        },
        {
          "code": "OSM:428126746",
          "name": "SB3 Sunway Lagoon",
          "lat": 3.070636,
          "lng": 101.6107012
        },
        {
          "code": "OSM:886392146",
          "name": "SK Tasik Puteri 2",
          "lat": 3.2811584,
          "lng": 101.4744692
        },
        {
          "code": "OSM:11053906452",
          "name": "Sri Mutiara Express",
          "lat": 5.0218415,
          "lng": 118.3195534
        },
        {
          "code": "OSM:1209038827",
          "name": "Stesen Bas Kuala Nerang",
          "lat": 6.2574756,
          "lng": 100.6100033
        },
        {
          "code": "OSM:9958354317",
          "name": "Taman Negara Tour Counter",
          "lat": 3.9336941,
          "lng": 102.3588902
        },
        {
          "code": "OSM:884680893",
          "name": "Terminal 1 @ Kampar",
          "lat": 4.3158583,
          "lng": 101.1491484
        },
        {
          "code": "OSM:4374966591",
          "name": "Terminal Akasia Benta, Jalan Kampung Baru Benta",
          "lat": 4.0174814,
          "lng": 101.9662084
        },
        {
          "code": "OSM:7266093185",
          "name": "Terminal Bandar Tun Abdul Razak",
          "lat": 2.9053225,
          "lng": 102.8902484
        },
        {
          "code": "OSM:247156943",
          "name": "Terminal Bas Balik Pulau",
          "lat": 5.3515542,
          "lng": 100.2398434
        },
        {
          "code": "OSM:11693284746",
          "name": "Terminal Bas Daerah Beaufort",
          "lat": 5.3463845,
          "lng": 115.7457552
        },
        {
          "code": "OSM:1191376670",
          "name": "Terminal Bas dan Teksi Bukit Gambir",
          "lat": 2.2135188,
          "lng": 102.6517894
        },
        {
          "code": "OSM:1366048657",
          "name": "Terminal Bas dan Teksi Kuala Ketil Commercial Centre",
          "lat": 5.6050214,
          "lng": 100.6416866
        },
        {
          "code": "OSM:1079990416",
          "name": "Terminal Bas Dan Teksi Penawar",
          "lat": 1.5548056,
          "lng": 104.2284174
        },
        {
          "code": "OSM:5739382294",
          "name": "Terminal Bas Ekspres Batu Pahat",
          "lat": 1.8533826,
          "lng": 102.9266399
        },
        {
          "code": "OSM:451320981",
          "name": "Terminal Bas Ekspres Kamunting Raya",
          "lat": 4.894555,
          "lng": 100.7246638
        },
        {
          "code": "OSM:5718815621",
          "name": "Terminal Bas Ekspress",
          "lat": 3.2015996,
          "lng": 113.0595528
        },
        {
          "code": "OSM:1275683078",
          "name": "Terminal Bas Ekspress Bandar Jeli",
          "lat": 5.6938795,
          "lng": 101.8470148
        },
        {
          "code": "OSM:2592855365",
          "name": "Terminal Bas Ekspress Johor Jaya",
          "lat": 1.5426558,
          "lng": 103.7989071
        },
        {
          "code": "OSM:639418938",
          "name": "Terminal Bas Klang Sentral",
          "lat": 3.1092181,
          "lng": 101.4378858
        },
        {
          "code": "OSM:12803410832",
          "name": "Terminal Bas KLIA T2 (Door 2 Level 1)",
          "lat": 2.7452666,
          "lng": 101.6847142
        },
        {
          "code": "OSM:9841777409",
          "name": "Terminal Bas Kota Masai",
          "lat": 1.4817955,
          "lng": 103.9537887
        },
        {
          "code": "OSM:514594730",
          "name": "Terminal Bas Kuala Kangsar",
          "lat": 4.7710956,
          "lng": 100.9395529
        },
        {
          "code": "OSM:546673882",
          "name": "Terminal Bas Kuala Perlis",
          "lat": 6.3974649,
          "lng": 100.1308451
        },
        {
          "code": "OSM:14868608",
          "name": "Terminal Bas Luar Daerah",
          "lat": 5.9945649,
          "lng": 116.1286075
        },
        {
          "code": "OSM:1233850548",
          "name": "Terminal Bas Pujut Corner",
          "lat": 4.4146008,
          "lng": 114.0162689
        },
        {
          "code": "OSM:5460008",
          "name": "Terminal Bas Shahab Perdana",
          "lat": 6.140814,
          "lng": 100.3541321
        },
        {
          "code": "OSM:1748129393",
          "name": "Terminal Bas Slim River",
          "lat": 3.8281827,
          "lng": 101.4046473
        },
        {
          "code": "OSM:267376824",
          "name": "Terminal Bas Taman Universiti",
          "lat": 1.5383766,
          "lng": 103.6285519
        },
        {
          "code": "OSM:1574152884",
          "name": "Terminal Bas Tampin",
          "lat": 2.4665236,
          "lng": 102.2302564
        },
        {
          "code": "OSM:691377808",
          "name": "Terminal Kampar Putra Sentral",
          "lat": 4.3173623,
          "lng": 101.1315264
        },
        {
          "code": "OSM:608415496",
          "name": "Terminal KOMTAR",
          "lat": 5.4141006,
          "lng": 100.3305863
        },
        {
          "code": "OSM:6516118993",
          "name": "Transtar Express",
          "lat": 3.4222029,
          "lng": 101.7930065
        },
        {
          "code": "OSM:11053906453",
          "name": "Tung Ma Express",
          "lat": 5.0218682,
          "lng": 118.3195413
        }
      ]
    },
    "Pulau Pinang": {
      "plane": [
        {
          "code": "BKI",
          "name": "Kota Kinabalu International Airport",
          "lat": 5.932743,
          "lng": 116.049324
        },
        {
          "code": "PKG",
          "name": "Pulau Pangkor Airport",
          "lat": 4.244719982147217,
          "lng": 100.5530014038086
        },
        {
          "code": "TOD",
          "name": "Tioman Airport",
          "lat": 2.81818,
          "lng": 104.160004
        }
      ],
      "train": [
        {
          "code": "OSM:12753679164",
          "name": "Bukit Betong",
          "lat": 4.257805,
          "lng": 101.9252709
        },
        {
          "code": "OSM:502265551",
          "name": "Bukit Panau",
          "lat": 5.8911162,
          "lng": 102.157294
        },
        {
          "code": "OSM:165373122",
          "name": "ERL Salak Tinggi",
          "lat": 2.8255157,
          "lng": 101.7131131
        },
        {
          "code": "OSM:1564756947",
          "name": "Gua Musang",
          "lat": 4.8789038,
          "lng": 101.9667704
        },
        {
          "code": "OSM:12753613693",
          "name": "Gua Musang",
          "lat": 4.8789124,
          "lng": 101.9667365
        },
        {
          "code": "OSM:12753560746",
          "name": "Kampung (Slow) Machang",
          "lat": 6.0645884,
          "lng": 102.1538102
        },
        {
          "code": "OSM:10971390562",
          "name": "Kampung Baru Bukit Abu",
          "lat": 5.3296837,
          "lng": 102.1214878
        },
        {
          "code": "OSM:2630745481",
          "name": "Kampung Baru Sungai Mengkuang",
          "lat": 5.330254,
          "lng": 102.2034004
        },
        {
          "code": "OSM:863058502",
          "name": "KB06A Kajang 2",
          "lat": 2.9625446,
          "lng": 101.7920628
        },
        {
          "code": "OSM:1788371654",
          "name": "KB17 Pulau Sebang/Tampin",
          "lat": 2.4638765,
          "lng": 102.2262731
        },
        {
          "code": "OSM:257615500",
          "name": "KC02 Batu Kentonmen",
          "lat": 3.1982826,
          "lng": 101.6812153
        },
        {
          "code": "OSM:495516294",
          "name": "KD04 Petaling",
          "lat": 3.0860738,
          "lng": 101.6642299
        },
        {
          "code": "OSM:257615490",
          "name": "KD10 Batu Tiga",
          "lat": 3.0759075,
          "lng": 101.5597475
        },
        {
          "code": "OSM:198136704",
          "name": "KD19 Pelabuhan Klang",
          "lat": 2.9995258,
          "lng": 101.3914664
        },
        {
          "code": "OSM:1041408137",
          "name": "Layang-Layang",
          "lat": 1.8118354,
          "lng": 103.477522
        },
        {
          "code": "OSM:1259024514",
          "name": "Lumat Centre",
          "lat": 5.4016334,
          "lng": 115.7453968
        },
        {
          "code": "OSM:24375045",
          "name": "MR1 KL Sentral (Monorail)",
          "lat": 3.1327328,
          "lng": 101.6878637
        },
        {
          "code": "OSM:24375054",
          "name": "MR11 Titiwangsa",
          "lat": 3.1731884,
          "lng": 101.6960027
        },
        {
          "code": "OSM:24375094",
          "name": "MR6 Bukit Bintang",
          "lat": 3.1460734,
          "lng": 101.7114817
        },
        {
          "code": "OSM:24375079",
          "name": "MR8 Bukit Nanas",
          "lat": 3.1561145,
          "lng": 101.7048611
        },
        {
          "code": "OSM:998365837",
          "name": "Pulau Indah",
          "lat": 2.96078,
          "lng": 101.3467663
        },
        {
          "code": "OSM:5176835006",
          "name": "Rantau Panjang",
          "lat": 6.0215594,
          "lng": 101.9764962
        },
        {
          "code": "OSM:11416821606",
          "name": "Sri Bintang",
          "lat": 5.2306795,
          "lng": 102.0102734
        },
        {
          "code": "OSM:969578131",
          "name": "Stesen Keretapi Tunjang",
          "lat": 6.269475,
          "lng": 100.3537778
        },
        {
          "code": "OSM:10685583428",
          "name": "Sungai Keladi",
          "lat": 5.9177852,
          "lng": 102.1561986
        },
        {
          "code": "OSM:12753560749",
          "name": "Sungai Keladi",
          "lat": 5.9176152,
          "lng": 102.1563219
        },
        {
          "code": "OSM:12753613692",
          "name": "Sungai Koyan",
          "lat": 4.9870609,
          "lng": 102.015573
        },
        {
          "code": "OSM:7263140",
          "name": "Sungai Petani",
          "lat": 5.643059,
          "lng": 100.4901638
        },
        {
          "code": "OSM:5512743777",
          "name": "Teluk Gunung",
          "lat": 4.6455323,
          "lng": 101.9939627
        },
        {
          "code": "OSM:10971370861",
          "name": "Ulu Temiang",
          "lat": 5.3077888,
          "lng": 102.1567552
        }
      ],
      "bus": [
        {
          "code": "OSM:11030467005",
          "name": "aisa City pickup and drop of points",
          "lat": 5.9759401,
          "lng": 116.0714131
        },
        {
          "code": "OSM:6938726885",
          "name": "Bus #10 to PCB beach",
          "lat": 6.132254,
          "lng": 102.2381967
        },
        {
          "code": "OSM:4717835982",
          "name": "Bus Station Jln Meranti",
          "lat": 1.5587795,
          "lng": 103.6308321
        },
        {
          "code": "OSM:7280244210",
          "name": "Bus Station Simpang Renggam",
          "lat": 1.8256236,
          "lng": 103.3099041
        },
        {
          "code": "OSM:11472690693",
          "name": "Hab Bas Padang Besar",
          "lat": 6.6613818,
          "lng": 100.3210987
        },
        {
          "code": "OSM:607380660",
          "name": "Hab Dato' Kailan",
          "lat": 5.5155064,
          "lng": 100.4318407
        },
        {
          "code": "OSM:1318472375",
          "name": "Hentian Akhir Bandar Seksyen 19",
          "lat": 3.0558294,
          "lng": 101.5261335
        },
        {
          "code": "OSM:1395428986",
          "name": "Hentian Akhir Bandar Seksyen U5",
          "lat": 3.1774336,
          "lng": 101.5363769
        },
        {
          "code": "OSM:1160719113",
          "name": "Hentian Bas Marang",
          "lat": 5.2052304,
          "lng": 103.2057979
        },
        {
          "code": "OSM:443493056",
          "name": "Hentian Raya Bentong",
          "lat": 3.5219242,
          "lng": 101.9101519
        },
        {
          "code": "OSM:11535346374",
          "name": "Hentian Ukay Perdana",
          "lat": 3.2121186,
          "lng": 101.7781033
        },
        {
          "code": "OSM:5754126449",
          "name": "Hub Seksyen 2",
          "lat": 3.0718953,
          "lng": 101.5076657
        },
        {
          "code": "OSM:11516281235",
          "name": "Kolej Profesional MARA",
          "lat": 1.5649736,
          "lng": 104.2200476
        },
        {
          "code": "OSM:8927005073",
          "name": "Kompleks Pengangkutan Awam Larkin",
          "lat": 1.4957105,
          "lng": 103.7425587
        },
        {
          "code": "OSM:169540925",
          "name": "Kompleks Perhentian Kajang",
          "lat": 2.9573822,
          "lng": 101.7912564
        },
        {
          "code": "OSM:342755887",
          "name": "Lawas Bus Terminal",
          "lat": 4.8603003,
          "lng": 115.4082705
        },
        {
          "code": "OSM:5442458721",
          "name": "Local bus to Jerantut 10am and 5 pm",
          "lat": 4.3819988,
          "lng": 102.4020446
        },
        {
          "code": "OSM:4989957223",
          "name": "Lundu Bus Stand",
          "lat": 1.6710015,
          "lng": 109.853402
        },
        {
          "code": "OSM:5477083421",
          "name": "lundu bus terminal",
          "lat": 1.6699485,
          "lng": 109.8528143
        },
        {
          "code": "OSM:10594607912",
          "name": "Pudu Sentral",
          "lat": 3.145553,
          "lng": 101.7009751
        },
        {
          "code": "OSM:1390407036",
          "name": "Pulau Sebang Sentral",
          "lat": 2.4650123,
          "lng": 102.2263023
        },
        {
          "code": "OSM:1675411889",
          "name": "Rantau Panjang Bus Terminal",
          "lat": 6.0188864,
          "lng": 101.9722351
        },
        {
          "code": "OSM:428126740",
          "name": "SB5 Sun-U Monash",
          "lat": 3.0653333,
          "lng": 101.6015363
        },
        {
          "code": "OSM:10579360",
          "name": "Stesen Bas dan Teksi Rantau Panjang",
          "lat": 6.0194865,
          "lng": 101.9789208
        },
        {
          "code": "OSM:1339755703",
          "name": "Stesen Bas Pendang",
          "lat": 5.9937101,
          "lng": 100.4764835
        },
        {
          "code": "OSM:6146969064",
          "name": "Sungai Besar Sentral",
          "lat": 3.6720122,
          "lng": 100.9863538
        },
        {
          "code": "OSM:11516281381",
          "name": "Terminal Bas & Teksi Bandar Penawar",
          "lat": 1.5547045,
          "lng": 104.2284563
        },
        {
          "code": "OSM:651733697",
          "name": "Terminal Bas & Teksi Gua Musang",
          "lat": 4.8615445,
          "lng": 101.9594411
        },
        {
          "code": "OSM:5175763621",
          "name": "Terminal Bas dan Teksi Tok Janggut",
          "lat": 5.830213,
          "lng": 102.404357
        },
        {
          "code": "OSM:3018417117",
          "name": "Terminal Bas dan Teksi Tun Sri Lanang",
          "lat": 1.7292818,
          "lng": 103.9021573
        },
        {
          "code": "OSM:2409009365",
          "name": "Terminal Bas Pasir Gudang",
          "lat": 1.4660048,
          "lng": 103.9011473
        },
        {
          "code": "OSM:1416902269",
          "name": "Terminal Bas Pekan",
          "lat": 3.4897471,
          "lng": 103.3965122
        },
        {
          "code": "OSM:138104366",
          "name": "Terminal Bas Port Dickson",
          "lat": 2.5240647,
          "lng": 101.7966852
        },
        {
          "code": "OSM:992413709",
          "name": "Terminal Bas Sungai Nibong",
          "lat": 5.3432516,
          "lng": 100.3002652
        },
        {
          "code": "OSM:1274831119",
          "name": "Terminal Bas Tawau (Jalan Stephen Tan)",
          "lat": 4.2450397,
          "lng": 117.8845334
        },
        {
          "code": "OSM:1082144339",
          "name": "Terminal Bus Bandar Sandakan",
          "lat": 5.8383829,
          "lng": 118.1175026
        },
        {
          "code": "OSM:5099560021",
          "name": "Terminal Bus Express Tanjung Gemok",
          "lat": 2.6623046,
          "lng": 103.6191464
        },
        {
          "code": "OSM:366070884",
          "name": "Terminal Pelabuhan Klang",
          "lat": 3.0014531,
          "lng": 101.3952363
        }
      ]
    },
    "Selangor": {
      "plane": [
        {
          "code": "KUL",
          "name": "Kuala Lumpur International Airport",
          "lat": 2.74558,
          "lng": 101.709999
        }
      ],
      "train": [
        {
          "code": "OSM:450334299",
          "name": "Bagan Serai",
          "lat": 5.0284482,
          "lng": 100.5272647
        },
        {
          "code": "OSM:3269432862",
          "name": "Beaufort",
          "lat": 5.3438284,
          "lng": 115.7446214
        },
        {
          "code": "OSM:257615497",
          "name": "KA03 Bank Negara",
          "lat": 3.1544418,
          "lng": 101.6929171
        },
        {
          "code": "OSM:2630769266",
          "name": "Kubang Rusa",
          "lat": 4.6010046,
          "lng": 101.9845376
        },
        {
          "code": "OSM:3269432867",
          "name": "Saliwangan",
          "lat": 5.2737121,
          "lng": 115.8029528
        },
        {
          "code": "OSM:353784582",
          "name": "Simpang Ampat",
          "lat": 5.2859285,
          "lng": 100.4808656
        },
        {
          "code": "OSM:744568185",
          "name": "Slim River",
          "lat": 3.8268368,
          "lng": 101.40232
        },
        {
          "code": "OSM:2630752130",
          "name": "Sri Mahligai",
          "lat": 5.2483381,
          "lng": 102.0096379
        },
        {
          "code": "OSM:12014574870",
          "name": "Stesen Operasi Bekok",
          "lat": 2.2162867,
          "lng": 103.1684331
        },
        {
          "code": "OSM:3991321537",
          "name": "Tasek Gelugor",
          "lat": 5.4821265,
          "lng": 100.4979104
        },
        {
          "code": "OSM:12753679166",
          "name": "Telang",
          "lat": 4.2486596,
          "lng": 101.9518083
        }
      ],
      "bus": [
        {
          "code": "OSM:11221582868",
          "name": "Bawong Sentral",
          "lat": 4.9928003,
          "lng": 101.1389106
        },
        {
          "code": "OSM:11961748050",
          "name": "Bintangor",
          "lat": 2.1715893,
          "lng": 111.6367614
        },
        {
          "code": "OSM:4717835980",
          "name": "Bus Station 1",
          "lat": 1.5601702,
          "lng": 103.6292887
        },
        {
          "code": "OSM:4717835564",
          "name": "Bus Station 3",
          "lat": 1.5594401,
          "lng": 103.6318119
        },
        {
          "code": "OSM:4717835981",
          "name": "Bus Station 4",
          "lat": 1.5594593,
          "lng": 103.632967
        },
        {
          "code": "OSM:4221907114",
          "name": "Bus Station Sg Koyan",
          "lat": 4.2191189,
          "lng": 101.8001479
        },
        {
          "code": "OSM:569817114",
          "name": "Hentian Gerik",
          "lat": 5.4305556,
          "lng": 101.1289794
        },
        {
          "code": "OSM:422556441",
          "name": "Hentian Raya Bagan Serai",
          "lat": 5.0120943,
          "lng": 100.5358886
        },
        {
          "code": "OSM:5090861223",
          "name": "Minivans To KK",
          "lat": 6.8803924,
          "lng": 116.8470184
        },
        {
          "code": "OSM:11040273005",
          "name": "Sandakan Central",
          "lat": 5.8658898,
          "lng": 118.0960931
        },
        {
          "code": "OSM:428126747",
          "name": "SB2 Mentari",
          "lat": 3.0761131,
          "lng": 101.6101786
        },
        {
          "code": "OSM:428126745",
          "name": "SB4 SunMed",
          "lat": 3.0655379,
          "lng": 101.6086118
        },
        {
          "code": "OSM:482036353",
          "name": "SB7 USJ7",
          "lat": 3.0552875,
          "lng": 101.5919768
        },
        {
          "code": "OSM:12903994567",
          "name": "Sijangkang Bas Station",
          "lat": 2.932989,
          "lng": 101.4450792
        },
        {
          "code": "OSM:5102135322",
          "name": "Sipitang Express",
          "lat": 5.3440065,
          "lng": 115.7449917
        },
        {
          "code": "OSM:694241994",
          "name": "Terminal Bas Anggerik",
          "lat": 4.1883102,
          "lng": 102.0577107
        },
        {
          "code": "OSM:11056146905",
          "name": "Transport to KK",
          "lat": 5.9534887,
          "lng": 116.6655799
        }
      ]
    },
    "Perak": {
      "plane": [
        {
          "code": "BBN",
          "name": "Bario Airport",
          "lat": 3.734648,
          "lng": 115.478548
        },
        {
          "code": "ODN",
          "name": "Long Seridan Airport",
          "lat": 3.976087,
          "lng": 115.067303
        },
        {
          "code": "MYY",
          "name": "Miri Airport",
          "lat": 4.32201,
          "lng": 113.987
        }
      ],
      "train": [
        {
          "code": "OSM:988989956",
          "name": "Alor Setar",
          "lat": 6.1134383,
          "lng": 100.3696009
        },
        {
          "code": "OSM:513503303",
          "name": "Arau",
          "lat": 6.43197,
          "lng": 100.268364
        },
        {
          "code": "OSM:1036641107",
          "name": "Bekok",
          "lat": 2.2968561,
          "lng": 103.1290993
        },
        {
          "code": "OSM:2630769252",
          "name": "Bertam",
          "lat": 5.1516284,
          "lng": 102.0438523
        },
        {
          "code": "OSM:12753679167",
          "name": "Chegar Perah",
          "lat": 4.4220317,
          "lng": 101.9316758
        },
        {
          "code": "OSM:12753679165",
          "name": "Dura",
          "lat": 4.3344149,
          "lng": 101.9176381
        },
        {
          "code": "OSM:9260017644",
          "name": "Gemas",
          "lat": 2.5797936,
          "lng": 102.6136329
        },
        {
          "code": "OSM:680339025",
          "name": "Gurun",
          "lat": 5.8243523,
          "lng": 100.4777472
        },
        {
          "code": "OSM:12753714951",
          "name": "Jenderak",
          "lat": 3.8071139,
          "lng": 102.3592797
        },
        {
          "code": "OSM:12753679162",
          "name": "Kampung Berkam",
          "lat": 4.2934499,
          "lng": 101.9221243
        },
        {
          "code": "OSM:12753679163",
          "name": "Kampung Berkam",
          "lat": 4.293461,
          "lng": 101.9220963
        },
        {
          "code": "OSM:1485787800",
          "name": "KB07 UKM",
          "lat": 2.9395784,
          "lng": 101.7877867
        },
        {
          "code": "OSM:2630937597",
          "name": "Kerambit",
          "lat": 4.1171933,
          "lng": 102.1994151
        },
        {
          "code": "OSM:2630745478",
          "name": "Manek Urai",
          "lat": 5.3911386,
          "lng": 102.2322295
        },
        {
          "code": "OSM:12753613690",
          "name": "Manek Urai",
          "lat": 5.3912682,
          "lng": 102.2321226
        },
        {
          "code": "OSM:2630937605",
          "name": "Mengkarak",
          "lat": 3.3311733,
          "lng": 102.4203073
        },
        {
          "code": "OSM:2630769264",
          "name": "Merapoh",
          "lat": 4.6931803,
          "lng": 102.003219
        },
        {
          "code": "OSM:11757442303",
          "name": "Papar",
          "lat": 5.7326155,
          "lng": 115.9323045
        },
        {
          "code": "OSM:503104017",
          "name": "Pasir Mas",
          "lat": 6.0427091,
          "lng": 102.1423693
        },
        {
          "code": "OSM:1314914257",
          "name": "Rengam",
          "lat": 1.8839908,
          "lng": 103.4039689
        },
        {
          "code": "OSM:2630738895",
          "name": "Tanah Merah",
          "lat": 5.8059634,
          "lng": 102.1466829
        },
        {
          "code": "OSM:456934935",
          "name": "Tapah Road",
          "lat": 4.1738451,
          "lng": 101.189483
        },
        {
          "code": "OSM:2228023105",
          "name": "Tasek",
          "lat": 4.6527989,
          "lng": 101.1202656
        },
        {
          "code": "OSM:4510269532",
          "name": "Tenom",
          "lat": 5.1229143,
          "lng": 115.9449681
        },
        {
          "code": "OSM:2630724904",
          "name": "Tumpat",
          "lat": 6.1989356,
          "lng": 102.1675285
        },
        {
          "code": "OSM:5319296471",
          "name": "Upper Station",
          "lat": 5.4236761,
          "lng": 100.2694386
        }
      ],
      "bus": [
        {
          "code": "OSM:306652961",
          "name": "AG Sentral",
          "lat": 2.3822603,
          "lng": 102.2113909
        },
        {
          "code": "OSM:6657678280",
          "name": "Bt 12",
          "lat": 3.2924575,
          "lng": 101.7316658
        },
        {
          "code": "OSM:877553325",
          "name": "GP Sentral",
          "lat": 1.4781557,
          "lng": 103.5829909
        },
        {
          "code": "OSM:9119710650",
          "name": "Jetty B",
          "lat": 5.41374,
          "lng": 100.3417497
        },
        {
          "code": "OSM:4971571721",
          "name": "Serian",
          "lat": 1.1660865,
          "lng": 110.5665788
        }
      ]
    },
    "Pahang": {
      "plane": [
        {
          "code": "KCH",
          "name": "Kuching International Airport",
          "lat": 1.487364,
          "lng": 110.352859
        },
        {
          "code": "LDU",
          "name": "Lahad Datu Airport",
          "lat": 5.03241,
          "lng": 118.32376
        },
        {
          "code": "LMN",
          "name": "Limbang Airport",
          "lat": 4.808300018310547,
          "lng": 115.01000213623047
        },
        {
          "code": "LBP",
          "name": "Long Banga Airport",
          "lat": 3.202138,
          "lng": 115.401811
        },
        {
          "code": "PEN",
          "name": "Penang International Airport",
          "lat": 5.297140121459961,
          "lng": 100.2770004272461
        },
        {
          "code": "SZB",
          "name": "Sultan Abdul Aziz Shah International Airport",
          "lat": 3.130579948425293,
          "lng": 101.54900360107422
        }
      ],
      "train": [
        {
          "code": "OSM:12756959534",
          "name": "Aur Gading",
          "lat": 4.3583831,
          "lng": 101.9215688
        },
        {
          "code": "OSM:2630937608",
          "name": "Bahau",
          "lat": 2.8113418,
          "lng": 102.4038783
        },
        {
          "code": "OSM:857846129",
          "name": "Behrang",
          "lat": 3.7453895,
          "lng": 101.4498291
        },
        {
          "code": "OSM:10685583411",
          "name": "Chicha Tinggi",
          "lat": 5.996361,
          "lng": 102.1419499
        },
        {
          "code": "OSM:12753560747",
          "name": "Chicha Tinggi",
          "lat": 5.9963242,
          "lng": 102.1420175
        },
        {
          "code": "OSM:2630752128",
          "name": "Dabong",
          "lat": 5.3767149,
          "lng": 102.0100459
        },
        {
          "code": "OSM:1036629335",
          "name": "Genuang",
          "lat": 2.4882115,
          "lng": 102.8849714
        },
        {
          "code": "OSM:24375106",
          "name": "KA06 Kepong",
          "lat": 3.2028098,
          "lng": 101.637395
        },
        {
          "code": "OSM:144850661",
          "name": "KA09 Kuang",
          "lat": 3.2582621,
          "lng": 101.5546786
        },
        {
          "code": "OSM:4052254321",
          "name": "KA12 Batang Kali",
          "lat": 3.4685255,
          "lng": 101.6377216
        },
        {
          "code": "OSM:12753560745",
          "name": "Kampung Machang",
          "lat": 6.064611,
          "lng": 102.1537741
        },
        {
          "code": "OSM:11757452991",
          "name": "Kawang",
          "lat": 5.7723484,
          "lng": 116.0188134
        },
        {
          "code": "OSM:1180021471",
          "name": "KB06 Kajang",
          "lat": 2.9826748,
          "lng": 101.79053
        },
        {
          "code": "OSM:234084121",
          "name": "KB08 Bangi",
          "lat": 2.9039959,
          "lng": 101.7861047
        },
        {
          "code": "OSM:257615489",
          "name": "KD12 Padang Jawa",
          "lat": 3.0524601,
          "lng": 101.4927427
        },
        {
          "code": "OSM:1084713840",
          "name": "KD14 Klang",
          "lat": 3.0430932,
          "lng": 101.4496678
        },
        {
          "code": "OSM:11755103859",
          "name": "Kimanis",
          "lat": 5.6150677,
          "lng": 115.8883036
        },
        {
          "code": "OSM:1147661728",
          "name": "Kluang",
          "lat": 2.0353491,
          "lng": 103.3166104
        },
        {
          "code": "OSM:7345196",
          "name": "Kodiang",
          "lat": 6.370677,
          "lng": 100.3027142
        },
        {
          "code": "OSM:459565678",
          "name": "Lahat",
          "lat": 4.5395138,
          "lng": 101.0533148
        },
        {
          "code": "OSM:1161131432",
          "name": "MR4 Hang Tuah",
          "lat": 3.1407327,
          "lng": 101.7060096
        },
        {
          "code": "OSM:3311975114",
          "name": "Padang Besar",
          "lat": 6.6626841,
          "lng": 100.3201982
        },
        {
          "code": "OSM:1040516671",
          "name": "Padang Rengas",
          "lat": 4.777816,
          "lng": 100.8576713
        },
        {
          "code": "OSM:2630937596",
          "name": "Padang Tengku",
          "lat": 4.2328127,
          "lng": 101.9899092
        },
        {
          "code": "OSM:11633142306",
          "name": "Padang Tengku",
          "lat": 4.2326598,
          "lng": 101.9903631
        },
        {
          "code": "OSM:2630745473",
          "name": "Pahi",
          "lat": 5.4714624,
          "lng": 102.2226742
        },
        {
          "code": "OSM:3269173808",
          "name": "Pangi",
          "lat": 5.1400224,
          "lng": 115.86617
        },
        {
          "code": "OSM:1631278678",
          "name": "Putatan",
          "lat": 5.8936708,
          "lng": 116.0488595
        },
        {
          "code": "OSM:317867959",
          "name": "Senawang",
          "lat": 2.6906495,
          "lng": 101.9717027
        },
        {
          "code": "OSM:450557523",
          "name": "Taiping",
          "lat": 4.8529389,
          "lng": 100.7321264
        },
        {
          "code": "OSM:2630937606",
          "name": "Triang",
          "lat": 3.2461824,
          "lng": 102.4112799
        },
        {
          "code": "OSM:1697910889",
          "name": "Wakaf Bharu",
          "lat": 6.11843,
          "lng": 102.2006487
        }
      ],
      "bus": [
        {
          "code": "OSM:11053906448",
          "name": "Dyana Line",
          "lat": 5.0216344,
          "lng": 118.3196513
        },
        {
          "code": "OSM:15706556",
          "name": "HAB Pasar Seni",
          "lat": 3.1422436,
          "lng": 101.6952844
        },
        {
          "code": "OSM:11703282869",
          "name": "Machang",
          "lat": 5.764041,
          "lng": 102.2151502
        },
        {
          "code": "OSM:8169862903",
          "name": "Machang Bus Station",
          "lat": 5.7654011,
          "lng": 102.2207831
        },
        {
          "code": "OSM:297941843",
          "name": "Pasar Tani",
          "lat": 1.7200692,
          "lng": 103.8940293
        },
        {
          "code": "OSM:5409778521",
          "name": "Sipitang",
          "lat": 5.0765956,
          "lng": 115.5503074
        }
      ]
    },
    "Kedah": {
      "plane": [
        {
          "code": "KUD",
          "name": "Kudat Airport",
          "lat": 6.924111,
          "lng": 116.837068
        },
        {
          "code": "LGL",
          "name": "Long Lellang Airport",
          "lat": 3.4210000038099997,
          "lng": 115.153999329
        },
        {
          "code": "MKM",
          "name": "Mukah Airport",
          "lat": 2.881944,
          "lng": 112.043333
        },
        {
          "code": "IPH",
          "name": "Sultan Azlan Shah Airport",
          "lat": 4.567969799041748,
          "lng": 101.09200286865234
        }
      ],
      "train": [
        {
          "code": "OSM:10971395785",
          "name": "Bukit Abu",
          "lat": 5.3722173,
          "lng": 102.0851022
        },
        {
          "code": "OSM:772736066",
          "name": "Bukit Ketri",
          "lat": 6.5237895,
          "lng": 100.2572232
        },
        {
          "code": "OSM:355241571",
          "name": "Bukit Tengah",
          "lat": 5.3645151,
          "lng": 100.4216143
        },
        {
          "code": "OSM:299647034",
          "name": "Ipoh",
          "lat": 4.5981487,
          "lng": 101.07339
        },
        {
          "code": "OSM:314403541",
          "name": "KA11 Serendah",
          "lat": 3.3760511,
          "lng": 101.6144819
        },
        {
          "code": "OSM:456934934",
          "name": "Kampar",
          "lat": 4.3027443,
          "lng": 101.1534686
        },
        {
          "code": "OSM:154451439",
          "name": "KB01 Mid Valley",
          "lat": 3.1186772,
          "lng": 101.6788758
        },
        {
          "code": "OSM:2573301359",
          "name": "KB02 Seputeh",
          "lat": 3.1136874,
          "lng": 101.68142
        },
        {
          "code": "OSM:200383730",
          "name": "KB05 Serdang",
          "lat": 3.0235201,
          "lng": 101.7159334
        },
        {
          "code": "OSM:270348550",
          "name": "KB11 Labu",
          "lat": 2.7542292,
          "lng": 101.8265669
        },
        {
          "code": "OSM:604851342",
          "name": "KB11 Labu",
          "lat": 2.7541213,
          "lng": 101.8266242
        },
        {
          "code": "OSM:4531069396",
          "name": "KB16 Rembau",
          "lat": 2.5928981,
          "lng": 102.0944333
        },
        {
          "code": "OSM:157287638",
          "name": "KD13 Bukit Badak",
          "lat": 3.0362631,
          "lng": 101.4703034
        },
        {
          "code": "OSM:2630752129",
          "name": "Kemubu",
          "lat": 5.300114,
          "lng": 102.0199972
        },
        {
          "code": "OSM:10971406835",
          "name": "Kemubu",
          "lat": 5.3000846,
          "lng": 102.0201185
        },
        {
          "code": "OSM:10544462941",
          "name": "Kinarut",
          "lat": 5.8240045,
          "lng": 116.043862
        },
        {
          "code": "OSM:6763983630",
          "name": "KLIA T1",
          "lat": 2.7547334,
          "lng": 101.7046397
        },
        {
          "code": "OSM:1033454811",
          "name": "KLIA T2",
          "lat": 2.7445265,
          "lng": 101.6851796
        },
        {
          "code": "OSM:552870570",
          "name": "Kobah",
          "lat": 5.9722322,
          "lng": 100.4406609
        },
        {
          "code": "OSM:13881619",
          "name": "Kulai",
          "lat": 1.6642065,
          "lng": 103.5980239
        }
      ],
      "bus": [
        {
          "code": "OSM:11053906454",
          "name": "TransTedar",
          "lat": 5.0210506,
          "lng": 118.3199389
        }
      ]
    },
    "Johor": {
      "plane": [
        {
          "code": "JHB",
          "name": "Senai International Airport",
          "lat": 1.64131,
          "lng": 103.669998
        }
      ],
      "train": [
        {
          "code": "OSM:1639480363",
          "name": "Johor Bahru Sentral",
          "lat": 1.4629737,
          "lng": 103.7646343
        },
        {
          "code": "OSM:24375086",
          "name": "MR10 Chow Kit",
          "lat": 3.1674017,
          "lng": 101.6983802
        }
      ],
      "bus": []
    },
    "Kelantan": {
      "plane": [
        {
          "code": "BKM",
          "name": "Bakalalan Airport",
          "lat": 3.974,
          "lng": 115.617996
        },
        {
          "code": "KUA",
          "name": "Kuantan Airport",
          "lat": 3.7753899097442627,
          "lng": 103.20899963378906
        }
      ],
      "train": [
        {
          "code": "OSM:43191005",
          "name": "ERL Bandar Tasik Selatan",
          "lat": 3.0763048,
          "lng": 101.7103241
        },
        {
          "code": "OSM:4532542405",
          "name": "Halogilat",
          "lat": 5.2549261,
          "lng": 115.8307646
        },
        {
          "code": "OSM:534117074",
          "name": "Jerantut",
          "lat": 3.9370934,
          "lng": 102.3577594
        },
        {
          "code": "OSM:243306384",
          "name": "KA07 Kepong Sentral",
          "lat": 3.2087148,
          "lng": 101.6285344
        },
        {
          "code": "OSM:592206465",
          "name": "KA07 Kepong Sentral",
          "lat": 3.2086475,
          "lng": 101.6284142
        },
        {
          "code": "OSM:450333333",
          "name": "Kamunting",
          "lat": 4.8956102,
          "lng": 100.7191034
        },
        {
          "code": "OSM:720665754",
          "name": "KB03 Salak Selatan",
          "lat": 3.0983106,
          "lng": 101.7049873
        },
        {
          "code": "OSM:24375080",
          "name": "KB04 Bandar Tasik Selatan",
          "lat": 3.0762917,
          "lng": 101.7110875
        },
        {
          "code": "OSM:1192165852",
          "name": "KB10 Nilai",
          "lat": 2.8029795,
          "lng": 101.8002614
        },
        {
          "code": "OSM:1355978617",
          "name": "KB12 Tiroi",
          "lat": 2.7412141,
          "lng": 101.8717747
        },
        {
          "code": "OSM:529035242",
          "name": "KB13 Seremban",
          "lat": 2.7186295,
          "lng": 101.9408098
        },
        {
          "code": "OSM:257615498",
          "name": "KC01 Sentul",
          "lat": 3.1822147,
          "lng": 101.6887631
        },
        {
          "code": "OSM:1081572645",
          "name": "KC05 Batu Caves",
          "lat": 3.2378712,
          "lng": 101.6814223
        },
        {
          "code": "OSM:257615494",
          "name": "KD03 Pantai Dalam",
          "lat": 3.09563,
          "lng": 101.6700512
        },
        {
          "code": "OSM:32757783",
          "name": "KD06 Kampung Dato Harun",
          "lat": 3.0844578,
          "lng": 101.6322971
        },
        {
          "code": "OSM:13098478",
          "name": "KD16 Teluk Gadong",
          "lat": 3.0339971,
          "lng": 101.4249138
        },
        {
          "code": "OSM:257615482",
          "name": "KD18 Jalan Kastam",
          "lat": 3.0130321,
          "lng": 101.4026321
        },
        {
          "code": "OSM:6432070151",
          "name": "Kemayan",
          "lat": 3.1358117,
          "lng": 102.3706026
        },
        {
          "code": "OSM:344751888",
          "name": "Kempas Baru",
          "lat": 1.5356045,
          "lng": 103.7234005
        },
        {
          "code": "OSM:638688527",
          "name": "KL Sentral",
          "lat": 3.134283,
          "lng": 101.686385
        },
        {
          "code": "OSM:2630769263",
          "name": "Lepan Tupai",
          "lat": 4.7881934,
          "lng": 102.0125097
        },
        {
          "code": "OSM:534134886",
          "name": "Lower Station",
          "lat": 5.4087656,
          "lng": 100.2770747
        },
        {
          "code": "OSM:1948980658",
          "name": "Middle Station",
          "lat": 5.4157917,
          "lng": 100.2738248
        },
        {
          "code": "OSM:24375104",
          "name": "MR9 Medan Tuanku",
          "lat": 3.1592854,
          "lng": 101.6989209
        },
        {
          "code": "OSM:330005147",
          "name": "Nibong Tebal",
          "lat": 5.1694503,
          "lng": 100.4797782
        },
        {
          "code": "OSM:2630752132",
          "name": "Sungai Tasin",
          "lat": 5.2133761,
          "lng": 102.0124795
        },
        {
          "code": "OSM:2630740744",
          "name": "Temangan",
          "lat": 5.7026386,
          "lng": 102.1518586
        },
        {
          "code": "OSM:11655039352",
          "name": "Temangan",
          "lat": 5.7026485,
          "lng": 102.1519364
        },
        {
          "code": "OSM:12894728600",
          "name": "Upper Tunnel Station",
          "lat": 5.4230062,
          "lng": 100.2697897
        }
      ],
      "bus": [
        {
          "code": "OSM:10963184456",
          "name": "Boelevard Transit Point",
          "lat": 1.509813,
          "lng": 110.3356224
        },
        {
          "code": "OSM:836384773",
          "name": "Hentian Bandar Shah Alam",
          "lat": 3.0724237,
          "lng": 101.5215402
        },
        {
          "code": "OSM:1676562333",
          "name": "Hentian Bandar Utama",
          "lat": 3.1514356,
          "lng": 101.613241
        },
        {
          "code": "OSM:624682565",
          "name": "Hentian Bas Bandar Kuantan",
          "lat": 3.8122287,
          "lng": 103.3227595
        },
        {
          "code": "OSM:269762487",
          "name": "Hentian Duta",
          "lat": 3.1713586,
          "lng": 101.6737861
        },
        {
          "code": "OSM:1084713845",
          "name": "Hentian Klang",
          "lat": 3.0475688,
          "lng": 101.44939
        },
        {
          "code": "OSM:1011427214",
          "name": "KB Sentral",
          "lat": 5.0707331,
          "lng": 103.010845
        },
        {
          "code": "OSM:479538861",
          "name": "KK Central",
          "lat": 5.972225,
          "lng": 116.0681635
        },
        {
          "code": "OSM:1993254005",
          "name": "KL Sentral",
          "lat": 3.133679,
          "lng": 101.6868577
        },
        {
          "code": "OSM:4394277355",
          "name": "Kuching Sentral",
          "lat": 1.481929,
          "lng": 110.3326374
        },
        {
          "code": "OSM:17729433",
          "name": "Melaka Central Bus Station",
          "lat": 2.2210117,
          "lng": 102.2500696
        },
        {
          "code": "OSM:5043095023",
          "name": "Minivans to Kiansom",
          "lat": 5.9919706,
          "lng": 116.1367904
        },
        {
          "code": "OSM:4007436397",
          "name": "NKS Bus Station",
          "lat": 4.3812702,
          "lng": 102.4027716
        },
        {
          "code": "OSM:736729843",
          "name": "Terminal Bas Dan Teksi Bandar Tasek Raja",
          "lat": 6.0292102,
          "lng": 102.1311929
        },
        {
          "code": "OSM:5076866795",
          "name": "Terminal Bas dan Teksi Chaah",
          "lat": 2.2488745,
          "lng": 103.0408463
        },
        {
          "code": "OSM:17216962",
          "name": "Terminal Bas Jalan Othman",
          "lat": 3.0871488,
          "lng": 101.6472893
        },
        {
          "code": "OSM:599350322",
          "name": "Terminal Bas Kota Samarahan",
          "lat": 1.4623705,
          "lng": 110.4840072
        },
        {
          "code": "OSM:1234514963",
          "name": "Terminal Bas Miri Sentral",
          "lat": 4.366252,
          "lng": 114.0074738
        },
        {
          "code": "OSM:1302727478",
          "name": "Terminal Bas Tuaran - KK",
          "lat": 6.1770212,
          "lng": 116.2338449
        },
        {
          "code": "OSM:12585863799",
          "name": "Terminal Bidor Sentral",
          "lat": 4.1312135,
          "lng": 101.2795984
        },
        {
          "code": "OSM:555568367",
          "name": "Terminal Intan",
          "lat": 4.0181564,
          "lng": 101.021203
        },
        {
          "code": "OSM:2202560421",
          "name": "Terminal Pontian",
          "lat": 1.479333,
          "lng": 103.3882441
        },
        {
          "code": "OSM:553717535",
          "name": "Terminal Sentral Kuantan",
          "lat": 3.8300472,
          "lng": 103.2849135
        }
      ]
    },
    "Melaka": {
      "plane": [
        {
          "code": "MZV",
          "name": "Mulu Airport",
          "lat": 4.048329830169678,
          "lng": 114.80500030517578
        }
      ],
      "train": [
        {
          "code": "OSM:554676496",
          "name": "Batang Melaka",
          "lat": 2.4737797,
          "lng": 102.4156115
        },
        {
          "code": "OSM:2630937598",
          "name": "Mela",
          "lat": 4.0753179,
          "lng": 102.2715784
        },
        {
          "code": "OSM:1368330059",
          "name": "Mela",
          "lat": 4.0752587,
          "lng": 102.2715754
        },
        {
          "code": "OSM:1631278426",
          "name": "Membakut",
          "lat": 5.4726704,
          "lng": 115.7967816
        },
        {
          "code": "OSM:11743149691",
          "name": "Membakut",
          "lat": 5.4727192,
          "lng": 115.7967191
        },
        {
          "code": "OSM:1314906960",
          "name": "Mengkibol",
          "lat": 1.9775621,
          "lng": 103.333664
        },
        {
          "code": "OSM:2861682020",
          "name": "Mentakab",
          "lat": 3.4844251,
          "lng": 102.3433873
        },
        {
          "code": "OSM:10685611437",
          "name": "Mentara Baru",
          "lat": 4.7306371,
          "lng": 102.0106563
        },
        {
          "code": "OSM:24375101",
          "name": "MR5 Imbi",
          "lat": 3.1428027,
          "lng": 101.7094226
        },
        {
          "code": "OSM:1192111702",
          "name": "Segamat",
          "lat": 2.5073275,
          "lng": 102.8133489
        },
        {
          "code": "OSM:456934943",
          "name": "Sungkai",
          "lat": 4.0060356,
          "lng": 101.3015006
        }
      ],
      "bus": [
        {
          "code": "OSM:1304653423",
          "name": "Terminal Bas Kg Likas",
          "lat": 6.0008898,
          "lng": 116.114216
        }
      ]
    },
    "Sabah": {
      "plane": [
        {
          "code": "LWY",
          "name": "Lawas Airport",
          "lat": 4.84917,
          "lng": 115.407997
        },
        {
          "code": "SBW",
          "name": "Sibu Airport",
          "lat": 2.2616,
          "lng": 111.985001
        },
        {
          "code": "AOR",
          "name": "Sultan Abdul Halim Airport",
          "lat": 6.189670085906982,
          "lng": 100.39800262451172
        },
        {
          "code": "KBR",
          "name": "Sultan Ismail Petra Airport",
          "lat": 6.1668500900268555,
          "lng": 102.29299926757812
        },
        {
          "code": "TWU",
          "name": "Tawau Airport",
          "lat": 4.31338,
          "lng": 118.12152
        }
      ],
      "train": [
        {
          "code": "OSM:315996694",
          "name": "Batu Gajah",
          "lat": 4.4598395,
          "lng": 101.0495025
        },
        {
          "code": "OSM:458968750",
          "name": "Kota Baharu",
          "lat": 4.4025595,
          "lng": 101.0791746
        },
        {
          "code": "OSM:641309238",
          "name": "Labis",
          "lat": 2.3834745,
          "lng": 103.0198457
        },
        {
          "code": "OSM:1293453279",
          "name": "Paloh",
          "lat": 2.1908708,
          "lng": 103.189882
        },
        {
          "code": "OSM:3269432864",
          "name": "Rayoh",
          "lat": 5.2086633,
          "lng": 115.8804979
        },
        {
          "code": "OSM:2630742173",
          "name": "Sungai Nal",
          "lat": 5.5893251,
          "lng": 102.1795515
        }
      ],
      "bus": [
        {
          "code": "OSM:11053906450",
          "name": "Sabariah Express",
          "lat": 5.021742,
          "lng": 118.3196003
        },
        {
          "code": "OSM:11053906455",
          "name": "Sairah Express",
          "lat": 5.0210145,
          "lng": 118.3199523
        }
      ]
    },
    "Negeri Sembilan": {
      "plane": [],
      "train": [
        {
          "code": "OSM:2630769256",
          "name": "Kampung Sungai Serian",
          "lat": 5.0247805,
          "lng": 102.0390895
        },
        {
          "code": "OSM:32757909",
          "name": "KD07 Seri Setia",
          "lat": 3.0845129,
          "lng": 101.6219551
        },
        {
          "code": "OSM:3018417115",
          "name": "KLIA Terminal 1 (Main Building)",
          "lat": 2.7525893,
          "lng": 101.7056607
        },
        {
          "code": "OSM:3018417116",
          "name": "KLIA Terminal 1 (Satellite Building)",
          "lat": 2.7474325,
          "lng": 101.7128047
        },
        {
          "code": "OSM:24375055",
          "name": "MR2 Tun Sambanthan",
          "lat": 3.1314534,
          "lng": 101.6908714
        },
        {
          "code": "OSM:2630769255",
          "name": "Sungai Serian",
          "lat": 5.0338183,
          "lng": 102.0504102
        }
      ],
      "bus": [
        {
          "code": "OSM:6432229632",
          "name": "Bidor Bus Station",
          "lat": 4.1116792,
          "lng": 101.288814
        },
        {
          "code": "OSM:199312780",
          "name": "Bus Terminal Segamat",
          "lat": 2.5087134,
          "lng": 102.8132231
        },
        {
          "code": "OSM:597003392",
          "name": "Chini bus station",
          "lat": 3.3774036,
          "lng": 102.9428081
        },
        {
          "code": "OSM:107916703",
          "name": "Damansara Damai Bus Terminal",
          "lat": 3.1956894,
          "lng": 101.591484
        },
        {
          "code": "OSM:10983641105",
          "name": "Express Bus Counters (GJG, Billion Star, Super Nice)",
          "lat": 5.4147066,
          "lng": 100.3307787
        },
        {
          "code": "OSM:5585598421",
          "name": "Express Bus Terminal",
          "lat": 5.3372241,
          "lng": 103.1409056
        },
        {
          "code": "OSM:1210090689",
          "name": "Genting Sky Avenue Bus Terminal",
          "lat": 3.4237568,
          "lng": 101.7964784
        },
        {
          "code": "OSM:1300186229",
          "name": "Hentian Bas dan Teksi Pekan Sabak",
          "lat": 3.7681272,
          "lng": 100.9816654
        },
        {
          "code": "OSM:944629668",
          "name": "Hentian Bas Kuala Pilah",
          "lat": 2.7410392,
          "lng": 102.2479976
        },
        {
          "code": "OSM:12386896282",
          "name": "Hentian Bas Machang",
          "lat": 5.7860034,
          "lng": 102.2175911
        },
        {
          "code": "OSM:543309826",
          "name": "Hentian Seri Iskandar",
          "lat": 4.3627643,
          "lng": 100.9762281
        },
        {
          "code": "OSM:3941631341",
          "name": "JB Sentral Bus Terminal",
          "lat": 1.4632803,
          "lng": 103.7648345
        },
        {
          "code": "OSM:550253888",
          "name": "Jengka Central Bus Station",
          "lat": 3.7692797,
          "lng": 102.5488986
        },
        {
          "code": "OSM:491896820",
          "name": "Kompleks Perhentian Bas & Teksi Kuala Kubu Baharu",
          "lat": 3.5655557,
          "lng": 101.6603867
        },
        {
          "code": "OSM:1342691730",
          "name": "Kompleks Terminal Kumpulan Bas Taiping",
          "lat": 4.8476879,
          "lng": 100.7394805
        },
        {
          "code": "OSM:4428414689",
          "name": "Kuching City Center Bus Station (Saujana)",
          "lat": 1.558113,
          "lng": 110.3418663
        },
        {
          "code": "OSM:1080978708",
          "name": "Lenggong Bus Terminal",
          "lat": 5.1093999,
          "lng": 100.9678327
        },
        {
          "code": "OSM:4035972070",
          "name": "Letat Jaya Far Distance Bus Terminal",
          "lat": 5.8645169,
          "lng": 118.0841112
        },
        {
          "code": "OSM:4394277354",
          "name": "Long Distance Bus Terminal",
          "lat": 2.3052948,
          "lng": 111.8499139
        },
        {
          "code": "OSM:5883250088",
          "name": "Long Distance Bus Terminal",
          "lat": 4.2633852,
          "lng": 118.0092365
        },
        {
          "code": "OSM:2124957481",
          "name": "Mini Bus Station",
          "lat": 5.8378932,
          "lng": 118.1155018
        },
        {
          "code": "OSM:4949087821",
          "name": "Padang Merdeka Station: Ranau, Tambunan, Keningau, Kota, Kota Belud, Kota Marudu",
          "lat": 5.9804404,
          "lng": 116.0762117
        },
        {
          "code": "OSM:5803991953",
          "name": "Perak Transit Express (Departure to Cameron highlands",
          "lat": 4.6697347,
          "lng": 101.0734614
        },
        {
          "code": "OSM:1036319746",
          "name": "Perhentian Bas / Teksi Padang Serai",
          "lat": 5.5068772,
          "lng": 100.5517227
        },
        {
          "code": "OSM:871857443",
          "name": "Perhentian Bas Baling",
          "lat": 5.6748879,
          "lng": 100.9168646
        },
        {
          "code": "OSM:734159804",
          "name": "Perhentian Bas Bandar Permaisuri",
          "lat": 5.5212502,
          "lng": 102.7447707
        },
        {
          "code": "OSM:4789274623",
          "name": "Perhentian Bas dan Kereta Sewa Ulu Tiram",
          "lat": 1.5978952,
          "lng": 103.8225261
        },
        {
          "code": "OSM:389489574",
          "name": "Perhentian bas dan teksi Masjid Tanah",
          "lat": 2.3517525,
          "lng": 102.1103869
        },
        {
          "code": "OSM:445308573",
          "name": "Perhentian Bas dan Teksi Nilai",
          "lat": 2.8021573,
          "lng": 101.7984947
        },
        {
          "code": "OSM:552870580",
          "name": "Perhentian Bas Kota Sarang Semut",
          "lat": 5.9729112,
          "lng": 100.4006758
        },
        {
          "code": "OSM:9958919187",
          "name": "Perhentian Bas Melalap-Tenom",
          "lat": 5.1239222,
          "lng": 115.9431244
        },
        {
          "code": "OSM:11389240874",
          "name": "Perhentian Bas Rembau",
          "lat": 2.5914703,
          "lng": 102.0936721
        },
        {
          "code": "OSM:12431548982",
          "name": "Perhentian Bas Serdang",
          "lat": 5.2113439,
          "lng": 100.6119361
        },
        {
          "code": "OSM:9603853640",
          "name": "Perhentian Bas/Teksi dan Gerai MDSR Renggam",
          "lat": 1.8852662,
          "lng": 103.4025234
        },
        {
          "code": "OSM:10678515721",
          "name": "Petronas Ayer Hitam (express bus pick-up)",
          "lat": 1.9336539,
          "lng": 103.1883147
        },
        {
          "code": "OSM:4574372392",
          "name": "Sarikei Bus Terminal",
          "lat": 2.1194912,
          "lng": 111.5322758
        },
        {
          "code": "OSM:2120425977",
          "name": "Semporna Bus Terminal",
          "lat": 4.4807615,
          "lng": 118.6092049
        },
        {
          "code": "OSM:525803888",
          "name": "Stesen Bas & Teksi Gemas",
          "lat": 2.5825336,
          "lng": 102.6111883
        },
        {
          "code": "OSM:312848816",
          "name": "Stesen Bas & Teksi Seri Manjung",
          "lat": 4.1973502,
          "lng": 100.6674735
        },
        {
          "code": "OSM:541734810",
          "name": "Stesen Bas & Teksi Tanjong Malim",
          "lat": 3.6789553,
          "lng": 101.5200447
        },
        {
          "code": "OSM:775445227",
          "name": "Stesen Bas Pekeliling",
          "lat": 3.1723017,
          "lng": 101.6957856
        },
        {
          "code": "OSM:700315052",
          "name": "Stesen Bas Sementara Bandar Jertih",
          "lat": 5.7367323,
          "lng": 102.4954336
        },
        {
          "code": "OSM:664539824",
          "name": "Stesen Bas Semenyih",
          "lat": 2.9451731,
          "lng": 101.8424816
        },
        {
          "code": "OSM:2612019107",
          "name": "Stesen Bas Sungai Petani",
          "lat": 5.6405643,
          "lng": 100.4908446
        },
        {
          "code": "OSM:273715569",
          "name": "Stesen Bas Temerloh",
          "lat": 3.4495549,
          "lng": 102.4220883
        },
        {
          "code": "OSM:496710075",
          "name": "Stesen Bas Terminal 1",
          "lat": 2.7217358,
          "lng": 101.936977
        },
        {
          "code": "OSM:5309667156",
          "name": "Stesen Bas/Teksi Sekinchan",
          "lat": 3.5093237,
          "lng": 101.1033737
        },
        {
          "code": "OSM:4971571621",
          "name": "Tebedu Immigration Bus Station",
          "lat": 0.9889229,
          "lng": 110.3533067
        },
        {
          "code": "OSM:602665479",
          "name": "Terminal 17 Shah Alam",
          "lat": 3.0472374,
          "lng": 101.5041372
        },
        {
          "code": "OSM:1064752390",
          "name": "Terminal Bas Bukit Lagi",
          "lat": 6.4350935,
          "lng": 100.1923312
        },
        {
          "code": "OSM:602971687",
          "name": "Terminal Bas Dan Teksi Kuala Besut",
          "lat": 5.8297747,
          "lng": 102.5522133
        },
        {
          "code": "OSM:9104103854",
          "name": "Terminal Bas Dan Teksi Labis",
          "lat": 2.3850678,
          "lng": 103.0218747
        },
        {
          "code": "OSM:984460003",
          "name": "Terminal Bas Dan Teksi Labis",
          "lat": 2.3850781,
          "lng": 103.0218424
        },
        {
          "code": "OSM:366248661",
          "name": "Terminal Bas Ekspress Temerloh",
          "lat": 3.4496654,
          "lng": 102.4153427
        },
        {
          "code": "OSM:1160475848",
          "name": "Terminal Bas Express - Lahad Datu",
          "lat": 5.0213616,
          "lng": 118.3197838
        },
        {
          "code": "OSM:7281738533",
          "name": "Terminal Bas Mini Jalan Masak",
          "lat": 5.3348073,
          "lng": 116.1524209
        },
        {
          "code": "OSM:6936144468",
          "name": "Terminal Bas Sri Aman",
          "lat": 1.2400868,
          "lng": 111.4564227
        },
        {
          "code": "OSM:122345016",
          "name": "Terminal Bersepadu Selatan (TBS)",
          "lat": 3.0780333,
          "lng": 101.711096
        },
        {
          "code": "OSM:9961425699",
          "name": "Terminal Persatuan Bas Mini Biah",
          "lat": 5.3330584,
          "lng": 116.1523222
        }
      ]
    },
    "Sarawak": {
      "plane": [
        {
          "code": "SDK",
          "name": "Sandakan Airport",
          "lat": 5.900899887084961,
          "lng": 118.05899810791016
        }
      ],
      "train": [
        {
          "code": "OSM:11751817154",
          "name": "Bongawan",
          "lat": 5.5394069,
          "lng": 115.8560705
        },
        {
          "code": "OSM:456179048",
          "name": "KA10 Rawang",
          "lat": 3.3189044,
          "lng": 101.5750187
        },
        {
          "code": "OSM:492374707",
          "name": "KA13 Rasa",
          "lat": 3.5002692,
          "lng": 101.6341514
        },
        {
          "code": "OSM:35268809",
          "name": "KD11 Shah Alam",
          "lat": 3.0563692,
          "lng": 101.5253393
        }
      ],
      "bus": [
        {
          "code": "OSM:12228696743",
          "name": "Biaramas Express",
          "lat": 1.5137581,
          "lng": 110.3362338
        },
        {
          "code": "OSM:5102114221",
          "name": "Shared Taxis To KK",
          "lat": 5.3443541,
          "lng": 115.7445984
        },
        {
          "code": "OSM:5053371821",
          "name": "Shared Taxis To Kota Kinabalu",
          "lat": 6.8802876,
          "lng": 116.8468719
        },
        {
          "code": "OSM:4509767989",
          "name": "stasyen kerata sewa",
          "lat": 5.8360447,
          "lng": 102.4080797
        },
        {
          "code": "OSM:491886478",
          "name": "Terminal Bas Bandar Malawati",
          "lat": 3.3299781,
          "lng": 101.2551053
        },
        {
          "code": "OSM:4216397290",
          "name": "West (inc Brunei & Sarawak)",
          "lat": 5.981126,
          "lng": 116.0746556
        }
      ]
    },
    "Terengganu": {
      "plane": [
        {
          "code": "TGG",
          "name": "Sultan Mahmud Airport",
          "lat": 5.3826398849487305,
          "lng": 103.10299682617188
        },
        {
          "code": "TMG",
          "name": "Tomanggong Airport",
          "lat": 5.40257,
          "lng": 118.65763
        }
      ],
      "train": [
        {
          "code": "OSM:3266548957",
          "name": "Bertam Baru",
          "lat": 5.1434742,
          "lng": 102.0456629
        },
        {
          "code": "OSM:12333496768",
          "name": "Bertam Baru",
          "lat": 5.1438718,
          "lng": 102.0454822
        },
        {
          "code": "OSM:2630769251",
          "name": "Jerek Baru",
          "lat": 5.1737721,
          "lng": 102.0099773
        },
        {
          "code": "OSM:4531069397",
          "name": "KB15 Sungai Gadut",
          "lat": 2.6604751,
          "lng": 101.996243
        },
        {
          "code": "OSM:12285522691",
          "name": "Keretapi Tanjung Aru",
          "lat": 5.9474499,
          "lng": 116.0602831
        }
      ],
      "bus": [
        {
          "code": "OSM:625049927",
          "name": "Hentian Pengangkutan Awam Dungun",
          "lat": 4.7756627,
          "lng": 103.4217677
        },
        {
          "code": "OSM:720154100",
          "name": "Perhentian Bas Batu Kikir",
          "lat": 2.8317118,
          "lng": 102.3176477
        },
        {
          "code": "OSM:1101010791",
          "name": "Perhentian Bas Tanjung Bunga",
          "lat": 5.464878,
          "lng": 100.2846479
        },
        {
          "code": "OSM:11053906456",
          "name": "Sentosa Express (SENEX)",
          "lat": 5.020933,
          "lng": 118.3199906
        },
        {
          "code": "OSM:749763408",
          "name": "Stesen Bas Bahau",
          "lat": 2.8088313,
          "lng": 102.4045045
        },
        {
          "code": "OSM:1275683076",
          "name": "Stesen Bas Bandar Jeli",
          "lat": 5.6935587,
          "lng": 101.8472314
        },
        {
          "code": "OSM:5331191980",
          "name": "Stesen Bas Bintulu Sentral",
          "lat": 3.201803,
          "lng": 113.0596532
        },
        {
          "code": "OSM:496710173",
          "name": "Stesen Bas Chukai",
          "lat": 4.2302727,
          "lng": 103.4287975
        },
        {
          "code": "OSM:4059873501",
          "name": "Stesen Bas Ekspres Raub",
          "lat": 3.7963694,
          "lng": 101.8557678
        },
        {
          "code": "OSM:881634959",
          "name": "Stesen Bas Jerantut",
          "lat": 3.9397956,
          "lng": 102.3577279
        },
        {
          "code": "OSM:548201510",
          "name": "Stesen Bas Kampong Gajah",
          "lat": 4.1837989,
          "lng": 100.9413679
        },
        {
          "code": "OSM:682889332",
          "name": "Stesen Bas Kerteh",
          "lat": 4.5086281,
          "lng": 103.4413521
        },
        {
          "code": "OSM:157560553",
          "name": "Stesen Bas Kota Bharu",
          "lat": 6.1281481,
          "lng": 102.2395559
        },
        {
          "code": "OSM:1027065276",
          "name": "Stesen Bas Kulim",
          "lat": 5.3706491,
          "lng": 100.5582371
        },
        {
          "code": "OSM:546124693",
          "name": "Stesen Bas Lumut",
          "lat": 4.2348446,
          "lng": 100.6337831
        },
        {
          "code": "OSM:512265355",
          "name": "Stesen Bas Medan Kidd",
          "lat": 4.5940849,
          "lng": 101.0726617
        },
        {
          "code": "OSM:262797507",
          "name": "Stesen Bas Miri",
          "lat": 4.3901758,
          "lng": 113.9873664
        },
        {
          "code": "OSM:5601148822",
          "name": "Stesen Bas Paka",
          "lat": 4.6303524,
          "lng": 103.4384368
        },
        {
          "code": "OSM:542071419",
          "name": "Stesen Bas Parit",
          "lat": 4.477377,
          "lng": 100.9090025
        },
        {
          "code": "OSM:430491361",
          "name": "Stesen Bas Pasir Puteh",
          "lat": 5.8353095,
          "lng": 102.4101668
        },
        {
          "code": "OSM:544683342",
          "name": "Stesen Bas Sarikei",
          "lat": 2.1323622,
          "lng": 111.5195583
        },
        {
          "code": "OSM:645532807",
          "name": "Stesen Bas Selama",
          "lat": 5.215689,
          "lng": 100.6940185
        },
        {
          "code": "OSM:409209286",
          "name": "Stesen Bas Sungai Rengit",
          "lat": 1.350226,
          "lng": 104.2221407
        },
        {
          "code": "OSM:857150497",
          "name": "Stesen Bas Tangkak",
          "lat": 2.2683099,
          "lng": 102.5411831
        },
        {
          "code": "OSM:540403740",
          "name": "Stesen Bas Tapah",
          "lat": 4.1967357,
          "lng": 101.2601241
        },
        {
          "code": "OSM:745521197",
          "name": "Stesen Bas Yan Besar",
          "lat": 5.7962792,
          "lng": 100.3739849
        },
        {
          "code": "OSM:4536222790",
          "name": "Terminal Bas",
          "lat": 2.8909085,
          "lng": 112.0894606
        },
        {
          "code": "OSM:7599808389",
          "name": "Terminal Bas",
          "lat": 1.4211944,
          "lng": 103.649295
        },
        {
          "code": "OSM:11472716525",
          "name": "Terminal Bas Bagan Datuk (Sementara)",
          "lat": 3.9920309,
          "lng": 100.7874402
        },
        {
          "code": "OSM:807943270",
          "name": "Terminal Bas Bayan Baru",
          "lat": 5.3269323,
          "lng": 100.2802514
        },
        {
          "code": "OSM:12038673478",
          "name": "Terminal Bas Benut",
          "lat": 1.6387447,
          "lng": 103.2596098
        },
        {
          "code": "OSM:1414807289",
          "name": "Terminal Bas Betong",
          "lat": 1.4056454,
          "lng": 111.5346652
        },
        {
          "code": "OSM:884281306",
          "name": "Terminal Bas Dan Teksi",
          "lat": 3.2487504,
          "lng": 102.4130112
        },
        {
          "code": "OSM:201763365",
          "name": "Terminal Bas dan Teksi Kukup",
          "lat": 1.3257131,
          "lng": 103.4441369
        },
        {
          "code": "OSM:175703863",
          "name": "Terminal Bas Kota Bharu",
          "lat": 6.1123771,
          "lng": 102.2292028
        },
        {
          "code": "OSM:201940967",
          "name": "Terminal Bas Kulai",
          "lat": 1.6623387,
          "lng": 103.59856
        },
        {
          "code": "OSM:232556006",
          "name": "Terminal Bas Masai",
          "lat": 1.4868312,
          "lng": 103.8853608
        },
        {
          "code": "OSM:1395006468",
          "name": "Terminal Bas MBKT",
          "lat": 5.3320037,
          "lng": 103.1372432
        },
        {
          "code": "OSM:10924642028",
          "name": "Terminal Bas Mersing",
          "lat": 2.4308927,
          "lng": 103.8325757
        },
        {
          "code": "OSM:11892870749",
          "name": "Terminal Bas Sri Indah",
          "lat": 4.2647083,
          "lng": 118.0076054
        },
        {
          "code": "OSM:1342662990",
          "name": "Terminal Bas Sungkai",
          "lat": 3.9967793,
          "lng": 101.3079809
        },
        {
          "code": "OSM:493905394",
          "name": "Terminal Bentayan Muar",
          "lat": 2.050704,
          "lng": 102.5703406
        },
        {
          "code": "OSM:493905396",
          "name": "Terminal Bentayan Muar",
          "lat": 2.0506681,
          "lng": 102.5699824
        },
        {
          "code": "OSM:871914528",
          "name": "Terminal Bersepadu Gombak",
          "lat": 3.2304884,
          "lng": 101.7249925
        },
        {
          "code": "OSM:9762006272",
          "name": "Terminal Gelang Patah",
          "lat": 1.4467411,
          "lng": 103.5895917
        },
        {
          "code": "OSM:577793350",
          "name": "Terminal Jalan Petri",
          "lat": 5.6396273,
          "lng": 100.4881353
        },
        {
          "code": "OSM:9761712172",
          "name": "Terminal Kulai",
          "lat": 1.6625445,
          "lng": 103.5987608
        },
        {
          "code": "OSM:505743992",
          "name": "Terminal Meru Raya",
          "lat": 4.6696813,
          "lng": 101.0733834
        },
        {
          "code": "OSM:539089605",
          "name": "Terminal Pengangkutan Awam Bandar Kluang",
          "lat": 2.0361737,
          "lng": 103.3228314
        },
        {
          "code": "OSM:1377688091",
          "name": "Terminal Pengangkutan Awam Bersepadu Negeri Perlis",
          "lat": 6.4033605,
          "lng": 100.1840142
        },
        {
          "code": "OSM:158851633",
          "name": "Terminal Pengangkutan Awam Pontian",
          "lat": 1.4794805,
          "lng": 103.3884172
        },
        {
          "code": "OSM:11950353971",
          "name": "Terminal Semporna Tawau",
          "lat": 4.4787074,
          "lng": 118.6108675
        },
        {
          "code": "OSM:971350832",
          "name": "Terminal Sentral Muadzam Shah",
          "lat": 3.0579221,
          "lng": 103.0850339
        },
        {
          "code": "OSM:11516532512",
          "name": "Terminal Sungai Rengit",
          "lat": 1.3498363,
          "lng": 104.222074
        },
        {
          "code": "OSM:9761988139",
          "name": "Terminal Taman Universiti",
          "lat": 1.5382284,
          "lng": 103.6284582
        },
        {
          "code": "OSM:7266093486",
          "name": "Terminal Tanjung Gemok",
          "lat": 2.6594565,
          "lng": 103.621923
        },
        {
          "code": "OSM:7266093685",
          "name": "Terminal Tanjung Gemok",
          "lat": 2.6594732,
          "lng": 103.6219214
        }
      ]
    },
    "Labuan": {
      "plane": [
        {
          "code": "BTU",
          "name": "Bintulu Airport",
          "lat": 3.12385010719,
          "lng": 113.019996643
        },
        {
          "code": "LBU",
          "name": "Labuan Airport",
          "lat": 5.301667,
          "lng": 115.248333
        },
        {
          "code": "LGK",
          "name": "Langkawi International Airport",
          "lat": 6.329730033874512,
          "lng": 99.72869873046875
        },
        {
          "code": "MUR",
          "name": "Marudi Airport",
          "lat": 4.178734,
          "lng": 114.330318
        }
      ],
      "train": [
        {
          "code": "OSM:682351413",
          "name": "Anak Bukit",
          "lat": 6.1833134,
          "lng": 100.3748057
        },
        {
          "code": "OSM:399592897",
          "name": "Parit Buntar",
          "lat": 5.1307482,
          "lng": 100.4863716
        },
        {
          "code": "OSM:2630733974",
          "name": "To' Uban",
          "lat": 5.9658046,
          "lng": 102.1439481
        },
        {
          "code": "OSM:12753560748",
          "name": "To' Uban",
          "lat": 5.9657989,
          "lng": 102.1439834
        }
      ],
      "bus": [
        {
          "code": "OSM:544754526",
          "name": "Hab Bas Greenwood",
          "lat": 3.23392,
          "lng": 101.7062513
        },
        {
          "code": "OSM:6287484585",
          "name": "local buses",
          "lat": 4.4681357,
          "lng": 101.3832128
        },
        {
          "code": "OSM:4225153093",
          "name": "Local Buses",
          "lat": 2.2859885,
          "lng": 111.8296549
        },
        {
          "code": "OSM:12395986873",
          "name": "Old Bus Stand",
          "lat": 1.8544923,
          "lng": 102.9331535
        },
        {
          "code": "OSM:1906520341",
          "name": "Sri Maju Bus Station",
          "lat": 4.5897594,
          "lng": 101.0824394
        },
        {
          "code": "OSM:695556044",
          "name": "Sri Maju Bus Station",
          "lat": 4.5895625,
          "lng": 101.0821409
        },
        {
          "code": "OSM:4427662189",
          "name": "Tung Ma Bus Station",
          "lat": 5.3330132,
          "lng": 116.1507121
        }
      ]
    },
    "Putrajaya": {
      "plane": [],
      "train": [
        {
          "code": "OSM:354869124",
          "name": "Bukit Mertajam",
          "lat": 5.3663587,
          "lng": 100.4474627
        },
        {
          "code": "OSM:9942835562",
          "name": "Butterworth",
          "lat": 5.3933618,
          "lng": 100.366572
        },
        {
          "code": "OSM:1164909159",
          "name": "ERL Putrajaya/Cyberjaya",
          "lat": 2.9318305,
          "lng": 101.6710183
        },
        {
          "code": "OSM:32757999",
          "name": "KD08 Setia Jaya",
          "lat": 3.0831756,
          "lng": 101.6114264
        },
        {
          "code": "OSM:257615491",
          "name": "KD09 Subang Jaya",
          "lat": 3.0845938,
          "lng": 101.5874263
        },
        {
          "code": "OSM:257615484",
          "name": "KD17 Kampung Raja Uda",
          "lat": 3.0201477,
          "lng": 101.4102512
        },
        {
          "code": "OSM:24375060",
          "name": "MR3 Maharajalela",
          "lat": 3.1389581,
          "lng": 101.6991877
        },
        {
          "code": "OSM:24375097",
          "name": "MR7 Raja Chulan",
          "lat": 3.1508899,
          "lng": 101.7104396
        },
        {
          "code": "OSM:2630769257",
          "name": "Pan Malayan",
          "lat": 4.9619708,
          "lng": 102.0101964
        },
        {
          "code": "OSM:10971399485",
          "name": "Sri Jaya",
          "lat": 5.2682411,
          "lng": 102.0095209
        }
      ],
      "bus": [
        {
          "code": "OSM:11053906449",
          "name": "Amin Jaya Express",
          "lat": 5.0216591,
          "lng": 118.3196405
        },
        {
          "code": "OSM:1257498629",
          "name": "Hub Bas Arau",
          "lat": 6.4298406,
          "lng": 100.2694326
        },
        {
          "code": "OSM:428126748",
          "name": "SB1 Sunway-Setia Jaya",
          "lat": 3.0828976,
          "lng": 101.612264
        },
        {
          "code": "OSM:482036351",
          "name": "SB6 South Quay-USJ1",
          "lat": 3.0616293,
          "lng": 101.5967795
        },
        {
          "code": "OSM:11684587930",
          "name": "Terminal Bestari Jaya",
          "lat": 3.3773758,
          "lng": 101.4100222
        },
        {
          "code": "OSM:1164909160",
          "name": "Terminal Putrajaya Sentral",
          "lat": 2.931444,
          "lng": 101.6706517
        }
      ]
    },
    "Perlis": {
      "plane": [],
      "train": [],
      "bus": [
        {
          "code": "OSM:4554785291",
          "name": "Aero Bus To KLIA",
          "lat": 2.9936036,
          "lng": 101.4439614
        },
        {
          "code": "OSM:11053906457",
          "name": "Chin's Express",
          "lat": 5.0209037,
          "lng": 118.3200093
        },
        {
          "code": "OSM:5564734345",
          "name": "The Summit",
          "lat": 5.3659457,
          "lng": 100.4628074
        }
      ]
    }
  },
  "meta": {
    "source": {
      "airports": "OurAirports (airports.csv, filtered: scheduled_service=yes, civil)",
      "train": "OpenStreetMap (railway=station/public_transport=station train=yes)",
      "bus": "OpenStreetMap (amenity=bus_station/public_transport=station bus=yes)"
    },
    "generatedAt": "2025-09-02T08:23:05.119Z"
  }
}