{
  "code": "NC",
  "name": "New Caledonia",
  "cities": {
    "Province Sud": {
      "plane": [
        {
          "code": "BMY",
          "name": "Île Art - Waala Airport",
          "lat": -19.720521,
          "lng": 163.661077
        },
        {
          "code": "KNQ",
          "name": "Koné Airport",
          "lat": -21.053551,
          "lng": 164.838768
        },
        {
          "code": "KOC",
          "name": "Koumac Airport",
          "lat": -20.546323,
          "lng": 164.255648
        },
        {
          "code": "LIF",
          "name": "Lifou Airport",
          "lat": -20.774563,
          "lng": 167.239328
        },
        {
          "code": "MEE",
          "name": "Maré Airport",
          "lat": -21.482438,
          "lng": 168.038465
        },
        {
          "code": "GEA",
          "name": "Nouméa Magenta Airport",
          "lat": -22.25812,
          "lng": 166.472783
        },
        {
          "code": "UVE",
          "name": "Ouvéa Airport",
          "lat": -20.640932,
          "lng": 166.573024
        },
        {
          "code": "TGJ",
          "name": "Tiga Airport",
          "lat": -21.096407,
          "lng": 167.80379
        },
        {
          "code": "TOU",
          "name": "Touho Airport",
          "lat": -20.790127,
          "lng": 165.259524
        }
      ],
      "train": [],
      "bus": []
    },
    "Province Nord": {
      "plane": [
        {
          "code": "NOU",
          "name": "La Tontouta International Airport",
          "lat": -22.014601,
          "lng": 166.212997
        }
      ],
      "train": [],
      "bus": []
    },
    "Province Îles": {
      "plane": [
        {
          "code": "ILP",
          "name": "Île des Pins Airport",
          "lat": -22.588899612426758,
          "lng": 167.45599365234375
        }
      ],
      "train": [],
      "bus": []
    }
  },
  "meta": {
    "source": {
      "airports": "OurAirports (airports.csv, filtered: scheduled_service=yes, civil)",
      "train": "OpenStreetMap (railway=station/public_transport=station train=yes)",
      "bus": "OpenStreetMap (amenity=bus_station/public_transport=station bus=yes)"
    },
    "generatedAt": "2025-09-02T08:47:21.556Z"
  }
}