{
  "code": "NG",
  "name": "Nigeria",
  "cities": {
    "Lagos": {
      "plane": [
        {
          "code": "DNBY",
          "name": "Bayelsa International Airport",
          "lat": 4.95759,
          "lng": 6.203327
        },
        {
          "code": "LOS",
          "name": "Murtala Muhammed International Airport",
          "lat": 6.57737,
          "lng": 3.32116
        },
        {
          "code": "JOS",
          "name": "Yakubu Gowon Airport",
          "lat": 9.639829635620117,
          "lng": 8.869050025939941
        }
      ],
      "train": [
        {
          "code": "OSM:12260658323",
          "name": "Agege",
          "lat": 6.619459,
          "lng": 3.3261746
        },
        {
          "code": "OSM:4180445030",
          "name": "Bajoga",
          "lat": 10.846426,
          "lng": 11.4376392
        },
        {
          "code": "OSM:4982548148",
          "name": "Ile Igbo Station",
          "lat": 7.5980189,
          "lng": 4.2813662
        },
        {
          "code": "OSM:501245258",
          "name": "Jagindi",
          "lat": 9.3442946,
          "lng": 8.2288987
        },
        {
          "code": "OSM:4181268020",
          "name": "Kagoro",
          "lat": 9.6131079,
          "lng": 8.400118
        },
        {
          "code": "OSM:4184990352",
          "name": "Lango",
          "lat": 12.3602114,
          "lng": 6.590634
        },
        {
          "code": "OSM:4180773164",
          "name": "Liman Katagum",
          "lat": 10.005957,
          "lng": 9.7820098
        },
        {
          "code": "OSM:12260658320",
          "name": "Mobolaji Johnson Station",
          "lat": 6.5017657,
          "lng": 3.3736846
        },
        {
          "code": "OSM:863764134",
          "name": "Omi-Adio Station",
          "lat": 7.4090803,
          "lng": 3.7474432
        },
        {
          "code": "OSM:501285926",
          "name": "Origo Station",
          "lat": 7.6922287,
          "lng": 4.365094
        },
        {
          "code": "OSM:4185006571",
          "name": "Tafoki",
          "lat": 11.6221776,
          "lng": 7.2762523
        },
        {
          "code": "OSM:667068961",
          "name": "UTC Station",
          "lat": 4.7812717,
          "lng": 7.0061496
        }
      ],
      "bus": [
        {
          "code": "OSM:4755886708",
          "name": "Faith Motors",
          "lat": 6.3443671,
          "lng": 5.636357
        },
        {
          "code": "OSM:5986883885",
          "name": "God is Good",
          "lat": 9.0654954,
          "lng": 7.4380756
        },
        {
          "code": "OSM:5854068985",
          "name": "Ijebu Ode Park to Lagos",
          "lat": 6.8108372,
          "lng": 3.9105063
        },
        {
          "code": "OSM:5427710121",
          "name": "Libra Motors",
          "lat": 5.5480203,
          "lng": 5.7805541
        },
        {
          "code": "OSM:7260806785",
          "name": "Mobil Car station",
          "lat": 10.3209257,
          "lng": 9.8215429
        }
      ]
    },
    "Kano": {
      "plane": [
        {
          "code": "AKR",
          "name": "Akure Airport",
          "lat": 7.246739864349365,
          "lng": 5.3010101318359375
        },
        {
          "code": "KAN",
          "name": "Mallam Aminu International Airport",
          "lat": 12.0476,
          "lng": 8.52462
        }
      ],
      "train": [
        {
          "code": "OSM:10777418521",
          "name": "Agbado",
          "lat": 6.6870679,
          "lng": 3.3030532
        },
        {
          "code": "OSM:10660799204",
          "name": "Gbazango",
          "lat": 9.1538239,
          "lng": 7.3111296
        },
        {
          "code": "OSM:501291112",
          "name": "Godani Station",
          "lat": 10.1230524,
          "lng": 7.1645412
        },
        {
          "code": "OSM:4180823975",
          "name": "Heipang",
          "lat": 9.6431711,
          "lng": 8.8792231
        },
        {
          "code": "OSM:1322974000",
          "name": "Iganmu",
          "lat": 6.4775221,
          "lng": 3.3431438
        },
        {
          "code": "OSM:12260658337",
          "name": "Ikeja",
          "lat": 6.5919092,
          "lng": 3.3373455
        },
        {
          "code": "OSM:501244099",
          "name": "Kaderko",
          "lat": 8.25,
          "lng": 8.533333
        },
        {
          "code": "OSM:10660799203",
          "name": "Kagini",
          "lat": 9.1245854,
          "lng": 7.2921222
        },
        {
          "code": "OSM:6288547068",
          "name": "Kakau",
          "lat": 10.3743365,
          "lng": 7.3499883
        },
        {
          "code": "OSM:2222000552",
          "name": "Kankada",
          "lat": 9.6719144,
          "lng": 8.3211441
        },
        {
          "code": "OSM:4191193401",
          "name": "Kankomi",
          "lat": 10.3380583,
          "lng": 7.5259038
        },
        {
          "code": "OSM:1737874144",
          "name": "Kano",
          "lat": 11.9994967,
          "lng": 8.5394241
        },
        {
          "code": "OSM:501271588",
          "name": "Kuru",
          "lat": 9.6479541,
          "lng": 8.8089654
        },
        {
          "code": "OSM:4181268013",
          "name": "Manchok",
          "lat": 9.6545759,
          "lng": 8.5201183
        }
      ],
      "bus": [
        {
          "code": "OSM:738682066",
          "name": "Igando",
          "lat": 6.5515807,
          "lng": 3.2410528
        },
        {
          "code": "OSM:6124544385",
          "name": "ROCK CANAAN",
          "lat": 6.7311541,
          "lng": 3.2692076
        }
      ]
    },
    "Federal Capital Territory": {
      "plane": [],
      "train": [
        {
          "code": "OSM:6249046135",
          "name": "Calabar International Convention Centre",
          "lat": 5.0434891,
          "lng": 8.314811
        },
        {
          "code": "OSM:1323182112",
          "name": "Professor Wole Shoyinka Station, Laderin",
          "lat": 7.1291764,
          "lng": 3.3984363
        },
        {
          "code": "OSM:6249046145",
          "name": "Tinapa Business and Resort",
          "lat": 5.0512866,
          "lng": 8.3160003
        }
      ],
      "bus": [
        {
          "code": "OSM:7972408585",
          "name": "Gombe State Transport Services (Gombe Line)",
          "lat": 10.2868505,
          "lng": 11.1655148
        },
        {
          "code": "OSM:7956172598",
          "name": "Imo Transport Company ITC Park",
          "lat": 4.8159873,
          "lng": 7.0076535
        },
        {
          "code": "OSM:39469591",
          "name": "Kaduna Long haul Bus station",
          "lat": 10.5860731,
          "lng": 7.4401719
        },
        {
          "code": "OSM:5666084148",
          "name": "Katsina State Transport Authority",
          "lat": 12.9810887,
          "lng": 7.5869913
        },
        {
          "code": "OSM:693552184",
          "name": "Oshodi Transport Interchange - Terminal 1",
          "lat": 6.5549164,
          "lng": 3.3512365
        },
        {
          "code": "OSM:693552185",
          "name": "Oshodi Transport Interchange - Terminal 2",
          "lat": 6.5558137,
          "lng": 3.3508371
        },
        {
          "code": "OSM:693552186",
          "name": "Oshodi Transport Interchange - Terminal 3",
          "lat": 6.5565932,
          "lng": 3.3527121
        },
        {
          "code": "OSM:7058116188",
          "name": "Peace Park Ogrute Enugu Ezike",
          "lat": 6.9817983,
          "lng": 7.4478683
        },
        {
          "code": "OSM:13047974726",
          "name": "Soludero Bus Terminal, Muritala Muhamed Way, Oko Erin, Nigeria",
          "lat": 8.487369,
          "lng": 4.5644774
        },
        {
          "code": "OSM:671991257",
          "name": "Tafawa Balewa Square Bus Terminal",
          "lat": 6.4457171,
          "lng": 3.4009949
        },
        {
          "code": "OSM:794643824",
          "name": "UNIVERSITY SHUTTLE BUS STATION",
          "lat": 7.3041178,
          "lng": 5.134988
        }
      ]
    },
    "Oyo": {
      "plane": [
        {
          "code": "QUO",
          "name": "Akwa Ibom International Airport",
          "lat": 4.8725,
          "lng": 8.093
        },
        {
          "code": "QRW",
          "name": "Warri Airport",
          "lat": 5.59821,
          "lng": 5.8187
        }
      ],
      "train": [
        {
          "code": "OSM:12260658336",
          "name": "Oshodi",
          "lat": 6.5572533,
          "lng": 3.3514068
        },
        {
          "code": "OSM:1964870331",
          "name": "Osogbo",
          "lat": 7.7803987,
          "lng": 4.5477655
        },
        {
          "code": "OSM:501268924",
          "name": "Otobi",
          "lat": 7.103026,
          "lng": 8.0701088
        },
        {
          "code": "OSM:4193185081",
          "name": "Otukpo",
          "lat": 7.2016092,
          "lng": 8.1500575
        },
        {
          "code": "OSM:12260658324",
          "name": "Oyingbo",
          "lat": 6.48343,
          "lng": 3.3814602
        },
        {
          "code": "OSM:4180802846",
          "name": "Tsofo",
          "lat": 9.6729284,
          "lng": 9.0731059
        }
      ],
      "bus": [
        {
          "code": "OSM:5428871425",
          "name": "PCM",
          "lat": 5.5485783,
          "lng": 5.7807085
        }
      ]
    },
    "Anambra": {
      "plane": [],
      "train": [
        {
          "code": "OSM:4184967568",
          "name": "Kaura-Namoda",
          "lat": 12.5743133,
          "lng": 6.5734087
        },
        {
          "code": "OSM:2098418094",
          "name": "Kurmin Biri",
          "lat": 10.0403142,
          "lng": 8.0213797
        },
        {
          "code": "OSM:4182757658",
          "name": "Malam-Maduri",
          "lat": 12.5598001,
          "lng": 9.885948
        },
        {
          "code": "OSM:1321599125",
          "name": "Marina Train Station",
          "lat": 6.4461311,
          "lng": 3.3948231
        }
      ],
      "bus": [
        {
          "code": "OSM:307951771",
          "name": "Azare Bus Station",
          "lat": 11.6757424,
          "lng": 10.1886603
        },
        {
          "code": "OSM:5656741191",
          "name": "Central Motor Park",
          "lat": 12.9698971,
          "lng": 7.6008343
        },
        {
          "code": "OSM:5589854921",
          "name": "Eagle Transport Company",
          "lat": 4.850521,
          "lng": 7.0545524
        },
        {
          "code": "OSM:2350899867",
          "name": "Iyare Motor Park",
          "lat": 6.3485686,
          "lng": 5.6220656
        },
        {
          "code": "OSM:5784351153",
          "name": "Kano motor park",
          "lat": 12.9695418,
          "lng": 7.5997189
        },
        {
          "code": "OSM:38919157",
          "name": "Kawo Motor Park",
          "lat": 10.5855004,
          "lng": 7.4482621
        },
        {
          "code": "OSM:2177482930",
          "name": "Mallam Karto Park",
          "lat": 12.007106,
          "lng": 8.5398965
        },
        {
          "code": "OSM:5234383123",
          "name": "Nyanya bus station",
          "lat": 9.0234192,
          "lng": 7.5706346
        },
        {
          "code": "OSM:4755897332",
          "name": "Obalende Motor Park",
          "lat": 6.4496353,
          "lng": 3.4073759
        },
        {
          "code": "OSM:2350879761",
          "name": "Owan West Mass Transit",
          "lat": 6.3443351,
          "lng": 5.6269471
        },
        {
          "code": "OSM:7956224800",
          "name": "Sagbama Motor Park",
          "lat": 5.1587601,
          "lng": 6.1980458
        },
        {
          "code": "OSM:707609369",
          "name": "Yaba Bus Terminal",
          "lat": 6.5108145,
          "lng": 3.3707987
        },
        {
          "code": "OSM:11013682842",
          "name": "Yankari Motor park",
          "lat": 10.3079133,
          "lng": 9.8441618
        }
      ]
    },
    "Rivers": {
      "plane": [
        {
          "code": "DNAN",
          "name": "Chinua Achebe International Airport",
          "lat": 6.267167,
          "lng": 6.871333
        }
      ],
      "train": [
        {
          "code": "OSM:1322975948",
          "name": "Mile 2",
          "lat": 6.4598768,
          "lng": 3.3116326
        },
        {
          "code": "OSM:4182806630",
          "name": "Ringim",
          "lat": 12.1578909,
          "lng": 9.1679695
        },
        {
          "code": "OSM:4193099598",
          "name": "Tilegu",
          "lat": 7.8766509,
          "lng": 8.5695005
        }
      ],
      "bus": [
        {
          "code": "OSM:5522405729",
          "name": "Aduvie Motors",
          "lat": 5.5501105,
          "lng": 5.7812711
        },
        {
          "code": "OSM:6172863389",
          "name": "Ihiebve Central Park",
          "lat": 7.042394,
          "lng": 6.1227771
        },
        {
          "code": "OSM:7956224609",
          "name": "King Koko Express",
          "lat": 4.9348548,
          "lng": 6.28479
        },
        {
          "code": "OSM:7956172597",
          "name": "Rivers Transport Company RTC",
          "lat": 4.8172483,
          "lng": 7.007277
        }
      ]
    },
    "Edo": {
      "plane": [],
      "train": [
        {
          "code": "OSM:10660799202",
          "name": "Deidei",
          "lat": 9.1062273,
          "lng": 7.2872913
        },
        {
          "code": "OSM:10660810222",
          "name": "Idu",
          "lat": 9.0469758,
          "lng": 7.342506
        },
        {
          "code": "OSM:6288472616",
          "name": "Jere",
          "lat": 9.5707208,
          "lng": 7.4539583
        },
        {
          "code": "OSM:1934376534",
          "name": "Shemi",
          "lat": 11.7081899,
          "lng": 7.1628645
        }
      ],
      "bus": [
        {
          "code": "OSM:981284618",
          "name": "Edo Line",
          "lat": 6.3435934,
          "lng": 5.6282402
        }
      ]
    },
    "Borno": {
      "plane": [
        {
          "code": "ILR",
          "name": "Ilorin International Airport",
          "lat": 8.440210342407227,
          "lng": 4.493919849395752
        }
      ],
      "train": [
        {
          "code": "OSM:893021658",
          "name": "Agbor Station",
          "lat": 6.1330234,
          "lng": 6.2185182
        },
        {
          "code": "OSM:2594871660",
          "name": "Bodija Train Station",
          "lat": 7.4317693,
          "lng": 3.9150486
        }
      ],
      "bus": [
        {
          "code": "OSM:2350899853",
          "name": "De Modern Bus Station",
          "lat": 6.3474182,
          "lng": 5.6233136
        }
      ]
    },
    "Abia": {
      "plane": [
        {
          "code": "IBA",
          "name": "Ibadan Airport",
          "lat": 7.362460136413574,
          "lng": 3.97832989692688
        },
        {
          "code": "ABV",
          "name": "Nnamdi Azikiwe International Airport",
          "lat": 9.00679,
          "lng": 7.26317
        }
      ],
      "train": [
        {
          "code": "OSM:4193099604",
          "name": "Baba",
          "lat": 7.7641804,
          "lng": 8.5239437
        },
        {
          "code": "OSM:501288424",
          "name": "Dabi",
          "lat": 12.1235507,
          "lng": 8.9804141
        },
        {
          "code": "OSM:501250102",
          "name": "Guga",
          "lat": 11.252604,
          "lng": 7.551754
        },
        {
          "code": "OSM:2279518368",
          "name": "Gusau",
          "lat": 12.1656756,
          "lng": 6.6712088
        },
        {
          "code": "OSM:4597112606",
          "name": "Kubwa",
          "lat": 9.1639788,
          "lng": 7.3252676
        },
        {
          "code": "OSM:501257360",
          "name": "Tabu Station",
          "lat": 9.4996402,
          "lng": 5.5507081
        },
        {
          "code": "OSM:12260658329",
          "name": "Yaba",
          "lat": 6.5114693,
          "lng": 3.3699982
        },
        {
          "code": "OSM:4182899168",
          "name": "Zakirai",
          "lat": 12.0979916,
          "lng": 8.8907456
        },
        {
          "code": "OSM:557035367",
          "name": "Zaria",
          "lat": 11.1101655,
          "lng": 7.7237134
        },
        {
          "code": "OSM:4191860033",
          "name": "Zaria",
          "lat": 9.0251997,
          "lng": 8.1992555
        }
      ],
      "bus": [
        {
          "code": "OSM:5425359221",
          "name": "AKTC",
          "lat": 5.5481381,
          "lng": 5.7805775
        },
        {
          "code": "OSM:4465077889",
          "name": "Zuba",
          "lat": 9.0932366,
          "lng": 7.2159666
        }
      ]
    },
    "Ogun": {
      "plane": [],
      "train": [
        {
          "code": "OSM:1923645503",
          "name": "Nguru",
          "lat": 12.8594636,
          "lng": 10.4348938
        }
      ],
      "bus": []
    },
    "Ondo": {
      "plane": [],
      "train": [
        {
          "code": "OSM:4180466852",
          "name": "Tongo",
          "lat": 10.7054199,
          "lng": 11.3671295
        },
        {
          "code": "OSM:3816861435",
          "name": "Utonkon",
          "lat": 6.9501026,
          "lng": 8.0330712
        }
      ],
      "bus": []
    },
    "Enugu": {
      "plane": [
        {
          "code": "ENU",
          "name": "Akanu Ibiam International Airport",
          "lat": 6.474269866943359,
          "lng": 7.561960220336914
        },
        {
          "code": "MIU",
          "name": "Maiduguri International Airport",
          "lat": 11.855299949645996,
          "lng": 13.080900192260742
        }
      ],
      "train": [
        {
          "code": "OSM:7099720458",
          "name": "Enugu",
          "lat": 6.4424558,
          "lng": 7.4935646
        },
        {
          "code": "OSM:1838737235",
          "name": "Maiduguri",
          "lat": 11.8625719,
          "lng": 13.1567949
        },
        {
          "code": "OSM:4180791372",
          "name": "Maijuju",
          "lat": 9.7479047,
          "lng": 9.1560459
        },
        {
          "code": "OSM:4191654786",
          "name": "Zenkuwa",
          "lat": 9.783478,
          "lng": 8.2836391
        }
      ],
      "bus": []
    },
    "Imo": {
      "plane": [],
      "train": [
        {
          "code": "OSM:501277745",
          "name": "Gimi Station",
          "lat": 11.335944,
          "lng": 7.9175811
        },
        {
          "code": "OSM:12260658321",
          "name": "Iju",
          "lat": 6.6620776,
          "lng": 3.3192707
        },
        {
          "code": "OSM:4917044812",
          "name": "Itori",
          "lat": 6.9294702,
          "lng": 3.2235619
        }
      ],
      "bus": [
        {
          "code": "OSM:5427746036",
          "name": "GIGM",
          "lat": 5.5482393,
          "lng": 5.7806147
        },
        {
          "code": "OSM:5478686242",
          "name": "GIGM",
          "lat": 4.9348295,
          "lng": 6.3099006
        },
        {
          "code": "OSM:5420967331",
          "name": "PMT",
          "lat": 5.5492656,
          "lng": 5.7809723
        },
        {
          "code": "OSM:5467762827",
          "name": "PMT",
          "lat": 5.5489591,
          "lng": 5.7808422
        }
      ]
    },
    "Kwara": {
      "plane": [
        {
          "code": "QOW",
          "name": "Sam Mbakwe International Airport",
          "lat": 5.427060127258301,
          "lng": 7.206029891967773
        }
      ],
      "train": [
        {
          "code": "OSM:501256117",
          "name": "Eruwa Road Station",
          "lat": 7.4011916,
          "lng": 3.4824747
        },
        {
          "code": "OSM:10663376585",
          "name": "Gogwada",
          "lat": 10.2561984,
          "lng": 7.2255069
        },
        {
          "code": "OSM:10660799201",
          "name": "Gwagwa",
          "lat": 9.0898296,
          "lng": 7.2851857
        },
        {
          "code": "OSM:5754032230",
          "name": "Kukwaba II",
          "lat": 9.0307647,
          "lng": 7.4226634
        },
        {
          "code": "OSM:501512023",
          "name": "Kutura",
          "lat": 10.1976004,
          "lng": 7.692327
        },
        {
          "code": "OSM:4191853342",
          "name": "Kwakwasa",
          "lat": 9.1907098,
          "lng": 8.1666276
        },
        {
          "code": "OSM:6252091691",
          "name": "Okpara Station",
          "lat": 5.6629055,
          "lng": 5.9511432
        }
      ],
      "bus": [
        {
          "code": "OSM:4756396721",
          "name": "AKTC Park",
          "lat": 5.0554817,
          "lng": 7.884274
        },
        {
          "code": "OSM:668542274",
          "name": "Bus Park",
          "lat": 9.5365624,
          "lng": 6.4554723
        },
        {
          "code": "OSM:670770746",
          "name": "Bus Park",
          "lat": 5.8280454,
          "lng": 7.3953891
        },
        {
          "code": "OSM:1217215362",
          "name": "Bus Park",
          "lat": 9.949114,
          "lng": 8.8908707
        },
        {
          "code": "OSM:6773300987",
          "name": "Takie Garage",
          "lat": 8.136448,
          "lng": 4.2376398
        }
      ]
    },
    "Kaduna": {
      "plane": [
        {
          "code": "KAD",
          "name": "Kaduna Airport",
          "lat": 10.696000099182129,
          "lng": 7.320109844207764
        }
      ],
      "train": [
        {
          "code": "OSM:3677156385",
          "name": "Kaduna - Rigasa",
          "lat": 10.5487117,
          "lng": 7.3549356
        },
        {
          "code": "OSM:4809747986",
          "name": "Kaduna Junction",
          "lat": 10.492132,
          "lng": 7.4163853
        },
        {
          "code": "OSM:4809747985",
          "name": "Kaduna North",
          "lat": 10.5405716,
          "lng": 7.4261182
        },
        {
          "code": "OSM:2222000243",
          "name": "Kafanchan",
          "lat": 9.5911008,
          "lng": 8.3030148
        },
        {
          "code": "OSM:501281354",
          "name": "Kajuru",
          "lat": 10.2635908,
          "lng": 7.6218437
        },
        {
          "code": "OSM:501360302",
          "name": "Kamuru",
          "lat": 9.8892057,
          "lng": 8.1888501
        }
      ],
      "bus": [
        {
          "code": "OSM:3085114204",
          "name": "Ikotun Bus Station",
          "lat": 6.5493778,
          "lng": 3.2679981
        }
      ]
    },
    "Osun": {
      "plane": [],
      "train": [
        {
          "code": "OSM:501255812",
          "name": "Iwo Station",
          "lat": 7.5565171,
          "lng": 4.2048025
        },
        {
          "code": "OSM:12260658330",
          "name": "Mushin",
          "lat": 6.5324821,
          "lng": 3.3614254
        },
        {
          "code": "OSM:501248980",
          "name": "Omoba Station",
          "lat": 5.2454293,
          "lng": 7.4070874
        },
        {
          "code": "OSM:893032628",
          "name": "Uromi Station",
          "lat": 6.7997821,
          "lng": 6.3975894
        }
      ],
      "bus": []
    },
    "Bauchi": {
      "plane": [
        {
          "code": "MDI",
          "name": "Makurdi Airport",
          "lat": 7.70388,
          "lng": 8.61394
        },
        {
          "code": "BCU",
          "name": "Sir Abubakar Tafawa Balewa International Airport",
          "lat": 10.482833,
          "lng": 9.744
        }
      ],
      "train": [
        {
          "code": "OSM:501270183",
          "name": "Auchan Station",
          "lat": 11.4141113,
          "lng": 8.0183159
        },
        {
          "code": "OSM:4180733740",
          "name": "Bauchi",
          "lat": 10.2931544,
          "lng": 9.8490961
        },
        {
          "code": "OSM:3897278683",
          "name": "Deba Fulani",
          "lat": 10.4209896,
          "lng": 11.3704989
        },
        {
          "code": "OSM:2787411810",
          "name": "Kutcheri",
          "lat": 11.8321871,
          "lng": 7.0213599
        },
        {
          "code": "OSM:3519910459",
          "name": "Makurdi",
          "lat": 7.7263563,
          "lng": 8.5329845
        }
      ],
      "bus": []
    },
    "Kogi": {
      "plane": [],
      "train": [],
      "bus": []
    },
    "Taraba": {
      "plane": [
        {
          "code": "CBQ",
          "name": "Margaret Ekpo International Airport",
          "lat": 4.976019859313965,
          "lng": 8.347200393676758
        }
      ],
      "train": [
        {
          "code": "OSM:1322975309",
          "name": "Alaba",
          "lat": 6.4643169,
          "lng": 3.3243962
        },
        {
          "code": "OSM:1855084842",
          "name": "Port Harcourt Station",
          "lat": 4.7650949,
          "lng": 7.0164659
        },
        {
          "code": "OSM:4180779131",
          "name": "Tafawa-Balewa",
          "lat": 9.7706821,
          "lng": 9.5565914
        },
        {
          "code": "OSM:6249046136",
          "name": "Tinapa Lakeside Hotel",
          "lat": 5.0482176,
          "lng": 8.3155915
        }
      ],
      "bus": [
        {
          "code": "OSM:2153201050",
          "name": "ECTS (Comrade Bus)",
          "lat": 6.3340996,
          "lng": 5.6225742
        },
        {
          "code": "OSM:11016323872",
          "name": "Shuttle Bus Park",
          "lat": 10.2786146,
          "lng": 9.7945818
        },
        {
          "code": "OSM:264961768",
          "name": "Tashan Bama",
          "lat": 11.8114458,
          "lng": 13.182083
        },
        {
          "code": "OSM:11523791669",
          "name": "Tashan Boi",
          "lat": 9.5617056,
          "lng": 9.5072718
        }
      ]
    },
    "Plateau": {
      "plane": [
        {
          "code": "PHC",
          "name": "Port Harcourt International Airport",
          "lat": 5.0154900550842285,
          "lng": 6.94959020614624
        }
      ],
      "train": [
        {
          "code": "OSM:9074714198",
          "name": "Papalanto Station",
          "lat": 6.9133538,
          "lng": 3.2333598
        }
      ],
      "bus": [
        {
          "code": "OSM:671812228",
          "name": "Mile 12 Bus Terminal",
          "lat": 6.6054707,
          "lng": 3.39961
        },
        {
          "code": "OSM:7956224593",
          "name": "Opolo Motor Park",
          "lat": 4.9484499,
          "lng": 6.334159
        },
        {
          "code": "OSM:11178545482",
          "name": "Opposite FUTA Campus",
          "lat": 7.3075583,
          "lng": 5.1388217
        },
        {
          "code": "OSM:5506376649",
          "name": "Peace Park",
          "lat": 4.9538131,
          "lng": 6.3503122
        },
        {
          "code": "OSM:707240101",
          "name": "Unilag Shuttle Bus Station",
          "lat": 6.5184219,
          "lng": 3.3948449
        }
      ]
    },
    "Akwa Ibom": {
      "plane": [],
      "train": [
        {
          "code": "OSM:755055896",
          "name": "Aba Railway Station",
          "lat": 5.1239136,
          "lng": 7.3704162
        },
        {
          "code": "OSM:6252091757",
          "name": "Abraka Station",
          "lat": 5.843094,
          "lng": 6.1101432
        },
        {
          "code": "OSM:9264707924",
          "name": "Agbarho Station",
          "lat": 5.5855985,
          "lng": 5.8872398
        },
        {
          "code": "OSM:6252092459",
          "name": "Ajaokuta Station",
          "lat": 7.4407655,
          "lng": 6.6256074
        },
        {
          "code": "OSM:981038963",
          "name": "Asiwaju Bola Tinubu Station",
          "lat": 6.4520012,
          "lng": 3.3688659
        },
        {
          "code": "OSM:667068962",
          "name": "Azikiwe Station",
          "lat": 4.7756517,
          "lng": 7.0110155
        },
        {
          "code": "OSM:501249402",
          "name": "Eruwa Railway Station",
          "lat": 7.3982679,
          "lng": 3.4845604
        },
        {
          "code": "OSM:501278045",
          "name": "Gamo Railway Station",
          "lat": 8.4166048,
          "lng": 4.5905335
        },
        {
          "code": "OSM:501264137",
          "name": "Ila Market Railway Station",
          "lat": 8.3031223,
          "lng": 4.6709122
        },
        {
          "code": "OSM:6252091690",
          "name": "Itakpe Station",
          "lat": 7.6204255,
          "lng": 6.3224655
        },
        {
          "code": "OSM:981033737",
          "name": "Kajola Station",
          "lat": 6.8147067,
          "lng": 3.2314226
        },
        {
          "code": "OSM:501283648",
          "name": "Okuku Railway Station",
          "lat": 8.033333,
          "lng": 4.683333
        },
        {
          "code": "OSM:501270667",
          "name": "Shakwata Station",
          "lat": 9.6642469,
          "lng": 6.6233074
        },
        {
          "code": "OSM:667068963",
          "name": "Sharks Park Station",
          "lat": 4.7655834,
          "lng": 7.0180922
        },
        {
          "code": "OSM:6252091692",
          "name": "Ujevwu Station",
          "lat": 5.4685346,
          "lng": 5.8115745
        },
        {
          "code": "OSM:670739197",
          "name": "Umuahia - Ibeku Station",
          "lat": 5.5280677,
          "lng": 7.4925212
        }
      ],
      "bus": [
        {
          "code": "OSM:264963043",
          "name": "Adamwa Sunshine Motor Park",
          "lat": 11.8393647,
          "lng": 13.1468342
        },
        {
          "code": "OSM:4755886707",
          "name": "AKTC Motors",
          "lat": 6.345332,
          "lng": 5.6355293
        },
        {
          "code": "OSM:2349475706",
          "name": "Akwa Ibom Motor Park",
          "lat": 6.3457435,
          "lng": 5.6350974
        },
        {
          "code": "OSM:770851671",
          "name": "manuwa bus sop",
          "lat": 6.425058,
          "lng": 7.5076468
        }
      ]
    },
    "Delta": {
      "plane": [],
      "train": [
        {
          "code": "OSM:1157159790",
          "name": "Agege LRMT Station",
          "lat": 6.6214964,
          "lng": 3.3258341
        },
        {
          "code": "OSM:6252092483",
          "name": "Agenebode Station",
          "lat": 7.0323109,
          "lng": 6.5218878
        },
        {
          "code": "OSM:501522526",
          "name": "Ede Station",
          "lat": 7.75,
          "lng": 4.433333
        },
        {
          "code": "OSM:1832628441",
          "name": "Funtua",
          "lat": 11.5288124,
          "lng": 7.3201991
        },
        {
          "code": "OSM:501297119",
          "name": "Gerti",
          "lat": 9.4628519,
          "lng": 8.2529185
        }
      ],
      "bus": [
        {
          "code": "OSM:5617995921",
          "name": "Delta Park",
          "lat": 5.5722718,
          "lng": 5.7856577
        },
        {
          "code": "OSM:2350879747",
          "name": "Edegbe Line",
          "lat": 6.3453079,
          "lng": 5.6286195
        },
        {
          "code": "OSM:10215240519",
          "name": "Uselu motor park",
          "lat": 6.3682028,
          "lng": 5.6173701
        }
      ]
    },
    "Ekiti": {
      "plane": [],
      "train": [
        {
          "code": "OSM:6252091114",
          "name": "Eganyi Station",
          "lat": 7.5780593,
          "lng": 6.4448309
        },
        {
          "code": "OSM:6252091561",
          "name": "Igueben-Ekhen Station",
          "lat": 6.6199193,
          "lng": 6.2600772
        },
        {
          "code": "OSM:501295991",
          "name": "Wushishi Station",
          "lat": 9.7476472,
          "lng": 6.0464146
        }
      ],
      "bus": [
        {
          "code": "OSM:7956225491",
          "name": "Ekeki Motor Park",
          "lat": 4.9289213,
          "lng": 6.29521
        }
      ]
    },
    "Sokoto": {
      "plane": [
        {
          "code": "SKO",
          "name": "Sadiq Abubakar III International Airport",
          "lat": 12.916299819946289,
          "lng": 5.207190036773682
        }
      ],
      "train": [
        {
          "code": "OSM:6252092153",
          "name": "Adogo Station",
          "lat": 7.5034524,
          "lng": 6.5439757
        },
        {
          "code": "OSM:6252091572",
          "name": "Itogbo Station",
          "lat": 7.1736844,
          "lng": 6.6757728
        }
      ],
      "bus": [
        {
          "code": "OSM:5468999125",
          "name": "Aghofure Motors",
          "lat": 4.9548468,
          "lng": 6.358929
        },
        {
          "code": "OSM:5577088245",
          "name": "Aghofure Motors",
          "lat": 5.5704485,
          "lng": 5.7991187
        },
        {
          "code": "OSM:5586214523",
          "name": "Aghofure Motors",
          "lat": 4.8158493,
          "lng": 7.0070721
        },
        {
          "code": "OSM:5586215521",
          "name": "Aghofure Motors",
          "lat": 4.8984441,
          "lng": 6.9064299
        },
        {
          "code": "OSM:5617994522",
          "name": "Aghofure Motors",
          "lat": 5.5702906,
          "lng": 5.7989727
        },
        {
          "code": "OSM:5617995027",
          "name": "Aghofure Motors",
          "lat": 4.815999,
          "lng": 7.006933
        },
        {
          "code": "OSM:5617995323",
          "name": "Aghofure Motors",
          "lat": 4.8984584,
          "lng": 6.9062715
        },
        {
          "code": "OSM:6069107485",
          "name": "Aghofure Motors",
          "lat": 4.8666341,
          "lng": 6.9998619
        },
        {
          "code": "OSM:10215240617",
          "name": "Cars to Osogbo",
          "lat": 7.4980228,
          "lng": 4.5199071
        },
        {
          "code": "OSM:2349475731",
          "name": "Glory Motor Park",
          "lat": 6.3490552,
          "lng": 5.6317854
        },
        {
          "code": "OSM:2350849579",
          "name": "Osaro Motors park",
          "lat": 6.3363948,
          "lng": 5.6207806
        },
        {
          "code": "OSM:2350849580",
          "name": "Osaro Motors Park",
          "lat": 6.3372857,
          "lng": 5.6205344
        },
        {
          "code": "OSM:318507720",
          "name": "Sokoto Main Garage",
          "lat": 13.0587608,
          "lng": 5.226043
        },
        {
          "code": "OSM:5466670272",
          "name": "Sunny Eru Motors",
          "lat": 5.5672761,
          "lng": 5.7971466
        }
      ]
    },
    "Cross River": {
      "plane": [],
      "train": [
        {
          "code": "OSM:4191704807",
          "name": "Kogum River",
          "lat": 9.2479746,
          "lng": 8.2276811
        }
      ],
      "bus": [
        {
          "code": "OSM:2350899852",
          "name": "Cliffosa Motor Park",
          "lat": 6.3469551,
          "lng": 5.6237987
        },
        {
          "code": "OSM:3249091263",
          "name": "Cross Country Motor Park",
          "lat": 13.055914,
          "lng": 5.2153834
        },
        {
          "code": "OSM:2349475726",
          "name": "Crystay Line Park",
          "lat": 6.3438095,
          "lng": 5.6319149
        },
        {
          "code": "OSM:5577113928",
          "name": "Dominion Express Motors",
          "lat": 5.5611275,
          "lng": 5.7932897
        },
        {
          "code": "OSM:6371384382",
          "name": "Igbogbo Bus Terminus",
          "lat": 6.5891618,
          "lng": 3.5185824
        },
        {
          "code": "OSM:671811998",
          "name": "Ikorodu Bus Terminal",
          "lat": 6.6211824,
          "lng": 3.5019873
        },
        {
          "code": "OSM:1144287447",
          "name": "Mafoluku Bus Terminal",
          "lat": 6.5557377,
          "lng": 3.3242665
        },
        {
          "code": "OSM:837276050",
          "name": "Ondo State Bus Terminal",
          "lat": 7.2611849,
          "lng": 5.1746638
        },
        {
          "code": "OSM:706089072",
          "name": "Oyingbo Bus Terminal",
          "lat": 6.4808714,
          "lng": 3.3829185
        },
        {
          "code": "OSM:7956218499",
          "name": "Peace Mass Transit Park",
          "lat": 6.13447,
          "lng": 6.7928472
        },
        {
          "code": "OSM:7956225897",
          "name": "Peace Mass Transit Park",
          "lat": 6.1294909,
          "lng": 6.7950055
        },
        {
          "code": "OSM:7956231995",
          "name": "Peace Mass Transit Park",
          "lat": 6.135061,
          "lng": 6.7928152
        },
        {
          "code": "OSM:5478678437",
          "name": "Rahony Travels",
          "lat": 4.9349491,
          "lng": 6.3100829
        },
        {
          "code": "OSM:13048283366",
          "name": "Station Road, Oko Erin, Nigeria",
          "lat": 8.4807116,
          "lng": 4.5893743
        },
        {
          "code": "OSM:13048283367",
          "name": "Station Road, Oko Erin, Nigeria",
          "lat": 8.4815895,
          "lng": 4.5895064
        },
        {
          "code": "OSM:12574391840",
          "name": "Terminus Motor Park",
          "lat": 9.9192829,
          "lng": 8.893104
        },
        {
          "code": "OSM:5467773426",
          "name": "X-class Links",
          "lat": 5.548798,
          "lng": 5.7807597
        }
      ]
    },
    "Adamawa": {
      "plane": [],
      "train": [
        {
          "code": "OSM:501257440",
          "name": "Gidan Mata Station",
          "lat": 9.7377066,
          "lng": 6.2361967
        }
      ],
      "bus": [
        {
          "code": "OSM:557611495",
          "name": "Dadi Motor Park, Kwangila",
          "lat": 11.1294461,
          "lng": 7.7048463
        }
      ]
    },
    "Zamfara": {
      "plane": [],
      "train": [],
      "bus": [
        {
          "code": "OSM:2349475716",
          "name": "Bob Izua Motor Park",
          "lat": 6.342684,
          "lng": 5.6332002
        }
      ]
    },
    "Nasarawa": {
      "plane": [],
      "train": [
        {
          "code": "OSM:10660849726",
          "name": "Bassanjiwa",
          "lat": 9.0138057,
          "lng": 7.2825035
        },
        {
          "code": "OSM:501271361",
          "name": "Gagarwa",
          "lat": 12.3964423,
          "lng": 9.5881738
        },
        {
          "code": "OSM:3830325370",
          "name": "Offa Railway",
          "lat": 8.1548933,
          "lng": 4.7265797
        }
      ],
      "bus": [
        {
          "code": "OSM:3651962628",
          "name": "Benin Garage",
          "lat": 7.274837,
          "lng": 5.244901
        },
        {
          "code": "OSM:711998140",
          "name": "Northgate Garage",
          "lat": 7.3076563,
          "lng": 5.1387443
        }
      ]
    },
    "Niger": {
      "plane": [],
      "train": [
        {
          "code": "OSM:3619825762",
          "name": "Zungeru",
          "lat": 9.8116769,
          "lng": 6.1693768
        }
      ],
      "bus": []
    },
    "Katsina": {
      "plane": [],
      "train": [],
      "bus": [
        {
          "code": "OSM:704979167",
          "name": "Ikeja Bus Terminal",
          "lat": 6.5913427,
          "lng": 3.3389089
        },
        {
          "code": "OSM:3085114191",
          "name": "Ikotun Terminal",
          "lat": 6.548011,
          "lng": 3.2677866
        },
        {
          "code": "OSM:1880810674",
          "name": "Kantin Kwari",
          "lat": 10.5200288,
          "lng": 7.4305451
        },
        {
          "code": "OSM:5428928324",
          "name": "Multi Line",
          "lat": 5.5428198,
          "lng": 5.7776007
        },
        {
          "code": "OSM:5430017221",
          "name": "Safe Transport Line",
          "lat": 5.5484801,
          "lng": 5.7806763
        }
      ]
    },
    "Yobe": {
      "plane": [
        {
          "code": "YOL",
          "name": "Yola Airport",
          "lat": 9.257550239562988,
          "lng": 12.430399894714355
        }
      ],
      "train": [],
      "bus": []
    },
    "Benue": {
      "plane": [
        {
          "code": "BNI",
          "name": "Benin Airport",
          "lat": 6.316979885101318,
          "lng": 5.5995001792907715
        }
      ],
      "train": [],
      "bus": [
        {
          "code": "OSM:738528609",
          "name": "Obalende Bus Terminus",
          "lat": 6.4495785,
          "lng": 3.408711
        }
      ]
    },
    "Jigawa": {
      "plane": [],
      "train": [
        {
          "code": "OSM:4182959731",
          "name": "Jogana",
          "lat": 12.0230229,
          "lng": 8.7049822
        },
        {
          "code": "OSM:6288503111",
          "name": "Rijana",
          "lat": 10.0488201,
          "lng": 7.3759752
        }
      ],
      "bus": []
    },
    "Kebbi": {
      "plane": [
        {
          "code": "NG-0005",
          "name": "Srr Ahmadu Bello International Airport",
          "lat": 12.479048,
          "lng": 4.369132
        }
      ],
      "train": [],
      "bus": []
    },
    "Gombe": {
      "plane": [
        {
          "code": "GMO",
          "name": "Gombe Lawanti International Airport",
          "lat": 10.298889,
          "lng": 10.9
        }
      ],
      "train": [
        {
          "code": "OSM:1955905479",
          "name": "Gombe",
          "lat": 10.2867363,
          "lng": 11.1867807
        }
      ],
      "bus": []
    },
    "Ebonyi": {
      "plane": [],
      "train": [
        {
          "code": "OSM:3683074725",
          "name": "Buni Yadi",
          "lat": 11.2744854,
          "lng": 12.0079539
        }
      ],
      "bus": []
    },
    "Bayelsa": {
      "plane": [],
      "train": [
        {
          "code": "OSM:893030423",
          "name": "Igbanke Station",
          "lat": 6.3611852,
          "lng": 6.2501549
        },
        {
          "code": "OSM:863990411",
          "name": "Obafemi Awolowo Station",
          "lat": 7.5593679,
          "lng": 3.896621
        }
      ],
      "bus": [
        {
          "code": "OSM:2583682650",
          "name": "Ogba Bus Park",
          "lat": 6.6325013,
          "lng": 3.3417422
        }
      ]
    }
  },
  "meta": {
    "source": {
      "airports": "OurAirports (airports.csv, filtered: scheduled_service=yes, civil)",
      "train": "OpenStreetMap (railway=station/public_transport=station train=yes)",
      "bus": "OpenStreetMap (amenity=bus_station/public_transport=station bus=yes)"
    },
    "generatedAt": "2025-09-02T08:19:07.052Z"
  }
}