{
  "code": "NO",
  "name": "Norway",
  "cities": {
    "Oslo": {
      "plane": [
        {
          "code": "ALF",
          "name": "Alta Airport",
          "lat": 69.976097,
          "lng": 23.3717
        },
        {
          "code": "BDU",
          "name": "Bardufoss Airport",
          "lat": 69.055801,
          "lng": 18.5404
        },
        {
          "code": "BJF",
          "name": "Båtsfjord Airport",
          "lat": 70.60025,
          "lng": 29.692612
        },
        {
          "code": "FRO",
          "name": "Florø Airport",
          "lat": 61.583599090576,
          "lng": 5.0247201919556
        },
        {
          "code": "HAA",
          "name": "Hasvik Airport",
          "lat": 70.486702,
          "lng": 22.1397
        },
        {
          "code": "LKL",
          "name": "Lakselv Airport, Banak",
          "lat": 70.068802,
          "lng": 24.973499
        },
        {
          "code": "MOL",
          "name": "Molde Airport, Årø",
          "lat": 62.744701,
          "lng": 7.2625
        },
        {
          "code": "MJF",
          "name": "Mosjøen Airport, Kjærstad",
          "lat": 65.783997,
          "lng": 13.2149
        },
        {
          "code": "OSY",
          "name": "Namsos Airport",
          "lat": 64.472198,
          "lng": 11.5786
        },
        {
          "code": "HOV",
          "name": "Ørsta-Volda Airport, Hovden",
          "lat": 62.180000305176,
          "lng": 6.0741000175476
        },
        {
          "code": "OSL",
          "name": "Oslo Airport, Gardermoen",
          "lat": 60.193901,
          "lng": 11.1004
        },
        {
          "code": "RRS",
          "name": "Røros Airport",
          "lat": 62.578399658203,
          "lng": 11.342300415039
        },
        {
          "code": "RET",
          "name": "Røst Airport",
          "lat": 67.526482,
          "lng": 12.101575
        },
        {
          "code": "TRF",
          "name": "Sandefjord Airport, Torp",
          "lat": 59.186699,
          "lng": 10.2586
        },
        {
          "code": "SVJ",
          "name": "Svolvær Airport, Helle",
          "lat": 68.243301,
          "lng": 14.6692
        },
        {
          "code": "TOS",
          "name": "Tromsø Airport, Langnes",
          "lat": 69.683296,
          "lng": 18.9189
        }
      ],
      "train": [],
      "bus": []
    },
    "Vestland": {
      "plane": [
        {
          "code": "AES",
          "name": "Ålesund Airport, Vigra",
          "lat": 62.5625,
          "lng": 6.1197
        },
        {
          "code": "SSJ",
          "name": "Sandnessjøen Airport, Stokka",
          "lat": 65.956802,
          "lng": 12.4689
        }
      ],
      "train": [],
      "bus": []
    },
    "Trøndelag": {
      "plane": [
        {
          "code": "BVG",
          "name": "Berlevåg Airport",
          "lat": 70.871517,
          "lng": 29.034097
        },
        {
          "code": "BNN",
          "name": "Brønnøysund Airport, Brønnøy",
          "lat": 65.461098,
          "lng": 12.2175
        },
        {
          "code": "HVG",
          "name": "Honningsvåg Airport, Valan",
          "lat": 71.009697,
          "lng": 25.983601
        },
        {
          "code": "TRD",
          "name": "Trondheim Airport, Værnes",
          "lat": 63.457802,
          "lng": 10.924
        }
      ],
      "train": [],
      "bus": []
    },
    "Rogaland": {
      "plane": [
        {
          "code": "MQN",
          "name": "Mo i Rana Airport, Røssvoll",
          "lat": 66.363899230957,
          "lng": 14.301400184631
        },
        {
          "code": "SOG",
          "name": "Sogndal Airport, Haukåsen",
          "lat": 61.156101,
          "lng": 7.13778
        },
        {
          "code": "LYR",
          "name": "Svalbard Airport, Longyear",
          "lat": 78.246101379395,
          "lng": 15.465600013733
        }
      ],
      "train": [],
      "bus": []
    },
    "Viken": {
      "plane": [
        {
          "code": "BGO",
          "name": "Bergen Airport, Flesland",
          "lat": 60.2934,
          "lng": 5.21814
        },
        {
          "code": "EVE",
          "name": "Harstad/Narvik Airport, Evenes",
          "lat": 68.491302490234,
          "lng": 16.678100585938
        },
        {
          "code": "KKN",
          "name": "Kirkenes Airport, Høybuktmoen",
          "lat": 69.7258,
          "lng": 29.8913
        },
        {
          "code": "KRS",
          "name": "Kristiansand Airport, Kjevik",
          "lat": 58.204201,
          "lng": 8.08537
        },
        {
          "code": "LKN",
          "name": "Leknes Airport",
          "lat": 68.152496337891,
          "lng": 13.609399795532
        },
        {
          "code": "MEH",
          "name": "Mehamn Airport",
          "lat": 71.029701,
          "lng": 27.8267
        },
        {
          "code": "RVK",
          "name": "Rørvik Airport, Ryum",
          "lat": 64.838302612305,
          "lng": 11.14610004425
        },
        {
          "code": "SOJ",
          "name": "Sørkjosen Airport",
          "lat": 69.786797,
          "lng": 20.9594
        },
        {
          "code": "SRP",
          "name": "Stord Airport, Sørstokken",
          "lat": 59.791901,
          "lng": 5.34085
        },
        {
          "code": "VDS",
          "name": "Vadsø Airport",
          "lat": 70.0653,
          "lng": 29.8447
        },
        {
          "code": "VAW",
          "name": "Vardø Airport, Svartnes",
          "lat": 70.3554,
          "lng": 31.044901
        }
      ],
      "train": [],
      "bus": []
    },
    "Vestfold og Telemark": {
      "plane": [],
      "train": [],
      "bus": []
    },
    "Agder": {
      "plane": [
        {
          "code": "ANX",
          "name": "Andøya Airport, Andenes",
          "lat": 69.292503,
          "lng": 16.144199
        },
        {
          "code": "FDE",
          "name": "Førde Airport, Bringeland",
          "lat": 61.391102,
          "lng": 5.75694
        },
        {
          "code": "HFT",
          "name": "Hammerfest Airport",
          "lat": 70.679703,
          "lng": 23.6686
        },
        {
          "code": "HAU",
          "name": "Haugesund Airport, Karmøy",
          "lat": 59.345299,
          "lng": 5.20836
        },
        {
          "code": "SDN",
          "name": "Sandane Airport, Anda",
          "lat": 61.830002,
          "lng": 6.10583
        },
        {
          "code": "SKN",
          "name": "Stokmarknes Airport, Skagen",
          "lat": 68.578827,
          "lng": 15.033417
        }
      ],
      "train": [],
      "bus": []
    },
    "Møre og Romsdal": {
      "plane": [],
      "train": [],
      "bus": []
    },
    "Nordland": {
      "plane": [
        {
          "code": "OLA",
          "name": "Ørland Airport",
          "lat": 63.69889831542969,
          "lng": 9.604000091552734
        }
      ],
      "train": [],
      "bus": []
    },
    "Troms og Finnmark": {
      "plane": [],
      "train": [],
      "bus": []
    },
    "Innlandet": {
      "plane": [
        {
          "code": "KSU",
          "name": "Kristiansund Airport, Kvernberget",
          "lat": 63.111801,
          "lng": 7.82452
        }
      ],
      "train": [],
      "bus": []
    }
  },
  "meta": {
    "source": {
      "airports": "OurAirports (airports.csv, filtered: scheduled_service=yes, civil)",
      "train": "OpenStreetMap (railway=station/public_transport=station train=yes)",
      "bus": "OpenStreetMap (amenity=bus_station/public_transport=station bus=yes)"
    },
    "generatedAt": "2025-09-02T08:42:38.973Z"
  }
}