{
  "code": "PE",
  "name": "Peru",
  "cities": {
    "Lima": {
      "plane": [
        {
          "code": "CHM",
          "name": "FAP Lieutenant Jaime Andres de Montreuil Morales Airport",
          "lat": -9.14961,
          "lng": -78.523804
        },
        {
          "code": "JUL",
          "name": "Inca Manco Capac International Airport",
          "lat": -15.467100143432617,
          "lng": -70.158203125
        },
        {
          "code": "LIM",
          "name": "Jorge Chávez International Airport",
          "lat": -12.0219,
          "lng": -77.114305
        }
      ],
      "train": [],
      "bus": []
    },
    "Arequipa": {
      "plane": [
        {
          "code": "AQP",
          "name": "Rodríguez Ballón International Airport",
          "lat": -16.3411006927,
          "lng": -71.5830993652
        }
      ],
      "train": [],
      "bus": []
    },
    "La Libertad": {
      "plane": [],
      "train": [],
      "bus": []
    },
    "Lambayeque": {
      "plane": [],
      "train": [],
      "bus": []
    },
    "Piura": {
      "plane": [
        {
          "code": "PIU",
          "name": "Capitán FAP Guillermo Concha Iberico International Airport",
          "lat": -5.20574998856,
          "lng": -80.61640167239999
        },
        {
          "code": "JAU",
          "name": "Francisco Carle Airport",
          "lat": -11.7831001282,
          "lng": -75.47339630130001
        }
      ],
      "train": [],
      "bus": []
    },
    "Cusco": {
      "plane": [
        {
          "code": "CUZ",
          "name": "Alejandro Velasco Astete International Airport",
          "lat": -13.535699844400002,
          "lng": -71.9387969971
        },
        {
          "code": "TRU",
          "name": "Capitan FAP Carlos Martinez De Pinillos International Airport",
          "lat": -8.08141040802002,
          "lng": -79.10880279541016
        },
        {
          "code": "IQT",
          "name": "Coronel FAP Francisco Secada Vignetta International Airport",
          "lat": -3.78474,
          "lng": -73.3088
        }
      ],
      "train": [],
      "bus": []
    },
    "Callao": {
      "plane": [
        {
          "code": "CIX",
          "name": "Air Force Captain Jose A Quinones Gonzales International Airport",
          "lat": -6.78748,
          "lng": -79.828102
        },
        {
          "code": "PCL",
          "name": "Cap FAP David Abenzur Rengifo International Airport",
          "lat": -8.37794017791748,
          "lng": -74.57430267333984
        }
      ],
      "train": [],
      "bus": []
    },
    "Junín": {
      "plane": [
        {
          "code": "JAE",
          "name": "Shumba Airport",
          "lat": -5.59248,
          "lng": -78.774002
        }
      ],
      "train": [],
      "bus": []
    },
    "Loreto": {
      "plane": [
        {
          "code": "TPP",
          "name": "Cadete FAP Guillermo Del Castillo Paredes Airport",
          "lat": -6.508739948272705,
          "lng": -76.37319946289062
        }
      ],
      "train": [],
      "bus": []
    },
    "Ucayali": {
      "plane": [],
      "train": [],
      "bus": []
    },
    "Ancash": {
      "plane": [],
      "train": [],
      "bus": []
    },
    "Tacna": {
      "plane": [
        {
          "code": "TYL",
          "name": "Captain Victor Montes Arias International Airport",
          "lat": -4.57664,
          "lng": -81.254097
        },
        {
          "code": "TCQ",
          "name": "Coronel FAP Carlos Ciriani Santa Rosa International Airport",
          "lat": -18.053300857500002,
          "lng": -70.2758026123
        },
        {
          "code": "NZC",
          "name": "Maria Reiche Neuman Airport",
          "lat": -14.854,
          "lng": -74.961502
        }
      ],
      "train": [],
      "bus": []
    },
    "Ica": {
      "plane": [
        {
          "code": "ILQ",
          "name": "General Jorge Fernandez Maldon Airport",
          "lat": -17.695,
          "lng": -71.344002
        }
      ],
      "train": [],
      "bus": []
    },
    "Puno": {
      "plane": [
        {
          "code": "SPPO",
          "name": "Pozuzo Airport",
          "lat": -10.070099830627441,
          "lng": -75.55000305175781
        }
      ],
      "train": [],
      "bus": []
    },
    "San Martín": {
      "plane": [],
      "train": [],
      "bus": []
    },
    "Ayacucho": {
      "plane": [
        {
          "code": "AYP",
          "name": "Air Force Colonel Alfredo Mendivil Duarte Airport",
          "lat": -13.1548,
          "lng": -74.204399
        }
      ],
      "train": [],
      "bus": []
    },
    "Cajamarca": {
      "plane": [
        {
          "code": "CJA",
          "name": "Mayor General FAP Armando Revoredo Iglesias Airport",
          "lat": -7.13918,
          "lng": -78.489403
        }
      ],
      "train": [],
      "bus": []
    },
    "Huánuco": {
      "plane": [
        {
          "code": "HUU",
          "name": "Alferez Fap David Figueroa Fernandini Airport",
          "lat": -9.878809928894043,
          "lng": -76.20480346679688
        },
        {
          "code": "SPHU",
          "name": "Huancayo Airport",
          "lat": -12.069899559020996,
          "lng": -75.19850158691406
        }
      ],
      "train": [],
      "bus": []
    },
    "Tumbes": {
      "plane": [
        {
          "code": "TBP",
          "name": "Captain Pedro Canga Rodríguez International Airport",
          "lat": -3.552074,
          "lng": -80.381086
        }
      ],
      "train": [],
      "bus": []
    },
    "Madre de Dios": {
      "plane": [],
      "train": [],
      "bus": [
        {
          "code": "OSM:435647134",
          "name": "Terminal Rodoviário de Jacobina",
          "lat": -11.1845781,
          "lng": -40.5209842
        }
      ]
    },
    "Apurímac": {
      "plane": [
        {
          "code": "YMS",
          "name": "Moises Benzaquen Rengifo Airport",
          "lat": -5.89377,
          "lng": -76.118202
        }
      ],
      "train": [],
      "bus": []
    },
    "Moquegua": {
      "plane": [],
      "train": [],
      "bus": []
    },
    "Pasco": {
      "plane": [],
      "train": [],
      "bus": []
    },
    "Huancavelica": {
      "plane": [],
      "train": [],
      "bus": []
    },
    "Amazonas": {
      "plane": [
        {
          "code": "ANS",
          "name": "Andahuaylas Airport",
          "lat": -13.706399917602539,
          "lng": -73.35040283203125
        },
        {
          "code": "CHH",
          "name": "Chachapoyas Airport",
          "lat": -6.201911,
          "lng": -77.856195
        },
        {
          "code": "PEM",
          "name": "Padre Aldamiz International Airport",
          "lat": -12.6135997772,
          "lng": -69.2285995483
        }
      ],
      "train": [],
      "bus": []
    }
  },
  "meta": {
    "source": {
      "airports": "OurAirports (airports.csv, filtered: scheduled_service=yes, civil)",
      "train": "OpenStreetMap (railway=station/public_transport=station train=yes)",
      "bus": "OpenStreetMap (amenity=bus_station/public_transport=station bus=yes)"
    },
    "generatedAt": "2025-09-02T08:22:49.501Z"
  }
}