{
  "code": "SB",
  "name": "Solomon Islands",
  "cities": {
    "Honiara": {
      "plane": [
        {
          "code": "BNY",
          "name": "Bellona/Anua Airport",
          "lat": -11.302222222200001,
          "lng": 159.798333333
        },
        {
          "code": "HIR",
          "name": "Honiara International Airport",
          "lat": -9.428,
          "lng": 160.054993
        },
        {
          "code": "MUA",
          "name": "Munda Airport",
          "lat": -8.32797,
          "lng": 157.263
        },
        {
          "code": "VAO",
          "name": "Suavanao Airport",
          "lat": -7.58556,
          "lng": 158.731003
        }
      ],
      "train": [],
      "bus": [
        {
          "code": "OSM:4960849349",
          "name": "Lunga",
          "lat": -9.4279153,
          "lng": 160.0296943
        }
      ]
    },
    "Malaita": {
      "plane": [
        {
          "code": "BAS",
          "name": "Ballalae Airport",
          "lat": -6.990745,
          "lng": 155.886656
        },
        {
          "code": "FRE",
          "name": "Fera/Maringe Airport",
          "lat": -8.1075,
          "lng": 159.576996
        },
        {
          "code": "GTA",
          "name": "Gatokae Aerodrome",
          "lat": -8.738358,
          "lng": 158.202836
        },
        {
          "code": "AKS",
          "name": "Gwaunaru'u Airport",
          "lat": -8.70257,
          "lng": 160.682007
        },
        {
          "code": "KGE",
          "name": "Kaghau Airport",
          "lat": -7.3305,
          "lng": 157.585
        },
        {
          "code": "MHM",
          "name": "Manaoba Airport",
          "lat": -8.325008,
          "lng": 160.80051
        },
        {
          "code": "RUS",
          "name": "Marau Airport",
          "lat": -9.861669540409999,
          "lng": 160.824996948
        },
        {
          "code": "IRA",
          "name": "Ngorangora Airport",
          "lat": -10.449700355500001,
          "lng": 161.897994995
        },
        {
          "code": "RBV",
          "name": "Ramata Airport",
          "lat": -8.168060302734375,
          "lng": 157.64300537109375
        },
        {
          "code": "XYA",
          "name": "Yandina Airport",
          "lat": -9.092816,
          "lng": 159.21841
        }
      ],
      "train": [],
      "bus": []
    },
    "Western": {
      "plane": [],
      "train": [],
      "bus": [
        {
          "code": "OSM:5834128787",
          "name": "WHITE RIVER",
          "lat": -9.4240325,
          "lng": 159.9220621
        }
      ]
    },
    "Makira and Ulawa": {
      "plane": [
        {
          "code": "MNY",
          "name": "Mono Airport",
          "lat": -7.416940212249756,
          "lng": 155.56500244140625
        },
        {
          "code": "NNB",
          "name": "Santa Ana Airport",
          "lat": -10.847994,
          "lng": 162.454108
        }
      ],
      "train": [],
      "bus": []
    },
    "Isabel": {
      "plane": [],
      "train": [],
      "bus": []
    },
    "Central": {
      "plane": [],
      "train": [],
      "bus": []
    },
    "Rennell and Bellona": {
      "plane": [
        {
          "code": "RNL",
          "name": "Rennell/Tingoa Airport",
          "lat": -11.55,
          "lng": 160.062778
        },
        {
          "code": "SCZ",
          "name": "Santa Cruz/Graciosa Bay/Luova Airport",
          "lat": -10.7203,
          "lng": 165.794998
        }
      ],
      "train": [],
      "bus": []
    },
    "Temotu": {
      "plane": [
        {
          "code": "GZO",
          "name": "Nusatupe Airport",
          "lat": -8.09778022766,
          "lng": 156.863998413
        }
      ],
      "train": [],
      "bus": [
        {
          "code": "OSM:4960894021",
          "name": "Boats to Tulagi",
          "lat": -9.4299878,
          "lng": 159.9555762
        }
      ]
    },
    "Choiseul": {
      "plane": [
        {
          "code": "CHY",
          "name": "Choiseul Bay Airport",
          "lat": -6.711944,
          "lng": 156.396111
        }
      ],
      "train": [],
      "bus": []
    }
  },
  "meta": {
    "source": {
      "airports": "OurAirports (airports.csv, filtered: scheduled_service=yes, civil)",
      "train": "OpenStreetMap (railway=station/public_transport=station train=yes)",
      "bus": "OpenStreetMap (amenity=bus_station/public_transport=station bus=yes)"
    },
    "generatedAt": "2025-09-02T08:49:01.369Z"
  }
}