{
  "code": "SV",
  "name": "El Salvador",
  "cities": {
    "San Salvador": {
      "plane": [
        {
          "code": "ILS",
          "name": "Ilopango International Airport",
          "lat": 13.6995,
          "lng": -89.119904
        },
        {
          "code": "SAL",
          "name": "Monseñor Óscar Arnulfo Romero International Airport",
          "lat": 13.4409,
          "lng": -89.055702
        }
      ],
      "train": [
        {
          "code": "OSM:554171468",
          "name": "Antigua Estación de Ferrocarriles de Atiquizaya",
          "lat": 13.9709319,
          "lng": -89.7523551
        }
      ],
      "bus": [
        {
          "code": "OSM:4605843991",
          "name": "Aduana El Poy to San Salvador",
          "lat": 14.3682225,
          "lng": -89.2097448
        },
        {
          "code": "OSM:10915462305",
          "name": "Bus 138 al aeropuerto",
          "lat": 13.6939637,
          "lng": -89.1920995
        },
        {
          "code": "OSM:596665210",
          "name": "Estación SITRAMSS Salvador del Mundo",
          "lat": 13.7025929,
          "lng": -89.224304
        },
        {
          "code": "OSM:1534828252",
          "name": "Parada Parque de Pelota",
          "lat": 13.689448,
          "lng": -89.2324852
        },
        {
          "code": "OSM:446918163",
          "name": "Punto Ruta 42 microbus",
          "lat": 13.6993697,
          "lng": -89.1836447
        },
        {
          "code": "OSM:10034726501",
          "name": "Ruta 179 & 517. Hacia Candelaria",
          "lat": 13.7178225,
          "lng": -88.9326893
        },
        {
          "code": "OSM:10034696052",
          "name": "Ruta 198. Hacia El Rosario",
          "lat": 13.7200636,
          "lng": -88.9335288
        },
        {
          "code": "OSM:10034932310",
          "name": "Ruta 199. Hacia San Cristóbal. Ruta 630. Canton San Antonio ( San Cristóbal )",
          "lat": 13.7192116,
          "lng": -88.932429
        },
        {
          "code": "OSM:10045984114",
          "name": "Ruta 515. Hacia San Rafael Cedros",
          "lat": 13.7238132,
          "lng": -88.9337966
        },
        {
          "code": "OSM:4244814566",
          "name": "TERMINAL DEL SUR",
          "lat": 13.3365404,
          "lng": -87.8456386
        },
        {
          "code": "OSM:10034729742",
          "name": "Terminal  Ruta 113. Hacia San Salvador",
          "lat": 13.7112179,
          "lng": -88.9315627
        },
        {
          "code": "OSM:4529250993",
          "name": "Terminal de Buses Ruta 129 y Microbuses Ruta 140 San Salvador - Suchitoto",
          "lat": 13.932363,
          "lng": -89.0277691
        },
        {
          "code": "OSM:4329633694",
          "name": "Terminal de Usulutan, Playa el Espino y Jucuaran",
          "lat": 13.3434066,
          "lng": -88.4326846
        },
        {
          "code": "OSM:538588657",
          "name": "Terminal del Sur",
          "lat": 13.6631018,
          "lng": -89.1893426
        },
        {
          "code": "OSM:597529583",
          "name": "Terminal del Sur",
          "lat": 13.6631099,
          "lng": -89.1893416
        },
        {
          "code": "OSM:618690118",
          "name": "Terminal del Sur",
          "lat": 13.6706057,
          "lng": -89.2834869
        }
      ]
    },
    "San Miguel": {
      "plane": [],
      "train": [
        {
          "code": "OSM:515112835",
          "name": "Armenia (En desuso)",
          "lat": 13.7463125,
          "lng": -89.5060515
        }
      ],
      "bus": [
        {
          "code": "OSM:6580702386",
          "name": "101D hacia tecla",
          "lat": 13.7083286,
          "lng": -89.2323571
        },
        {
          "code": "OSM:376272544",
          "name": "Bus Terminal",
          "lat": 14.0403588,
          "lng": -88.9440518
        },
        {
          "code": "OSM:1217905774",
          "name": "Estacionamiento de buses",
          "lat": 13.8811684,
          "lng": -89.3494247
        },
        {
          "code": "OSM:6795495927",
          "name": "Parqueo El Amatillo",
          "lat": 13.5866173,
          "lng": -87.7921831
        },
        {
          "code": "OSM:5732744422",
          "name": "Parqueo Gamaliel",
          "lat": 13.7008988,
          "lng": -89.2326907
        },
        {
          "code": "OSM:6052795497",
          "name": "Platinum / King Quality",
          "lat": 13.6889751,
          "lng": -89.2407279
        },
        {
          "code": "OSM:4529298489",
          "name": "Punto de bus Ruta 163 Suchitoto - Aguilares",
          "lat": 13.9363152,
          "lng": -89.0272323
        },
        {
          "code": "OSM:398433977",
          "name": "Punto de Meta Transporte Maritza Esmeralda",
          "lat": 13.7101813,
          "lng": -89.7171776
        },
        {
          "code": "OSM:6375198303",
          "name": "Punto de microbuses 11-C",
          "lat": 13.6550118,
          "lng": -89.1819908
        },
        {
          "code": "OSM:4331202891",
          "name": "Punto de Microbuses de la Ruta 9",
          "lat": 13.6952275,
          "lng": -89.1648564
        },
        {
          "code": "OSM:1392893872",
          "name": "Punto de microbuses R-2",
          "lat": 13.74968,
          "lng": -89.7046855
        },
        {
          "code": "OSM:3969212925",
          "name": "Terminal de Buses",
          "lat": 13.3384302,
          "lng": -87.8455156
        },
        {
          "code": "OSM:4018754933",
          "name": "Terminal de Buses",
          "lat": 13.5903639,
          "lng": -89.8303967
        },
        {
          "code": "OSM:5828105486",
          "name": "Terminal de buses 116",
          "lat": 13.6427339,
          "lng": -88.7930814
        },
        {
          "code": "OSM:561065836",
          "name": "Terminal de Buses hacia San Miguel",
          "lat": 13.3436984,
          "lng": -88.4548754
        },
        {
          "code": "OSM:252357114",
          "name": "Terminal de Buses San Miguel",
          "lat": 13.4842614,
          "lng": -88.1712753
        },
        {
          "code": "OSM:10019943639",
          "name": "Terminal de Microbuses",
          "lat": 13.7942849,
          "lng": -89.3599318
        },
        {
          "code": "OSM:1191665523",
          "name": "Terminal de Ómnibus",
          "lat": 20.216233,
          "lng": -75.2306481
        },
        {
          "code": "OSM:313912120",
          "name": "Terminal de Quezaltepeque",
          "lat": 13.8350716,
          "lng": -89.2734078
        },
        {
          "code": "OSM:424862387",
          "name": "Terminal Nueva (Terminal de buses SEDAS)",
          "lat": 13.7108843,
          "lng": -89.7182225
        },
        {
          "code": "OSM:9965004518",
          "name": "Terminal Nueva Abfahrt 129 Sochitoto , 301 San Miguel",
          "lat": 13.6958067,
          "lng": -89.1397918
        },
        {
          "code": "OSM:1227719521",
          "name": "Trans Galgos Inter , King Quality - Puerto Bus",
          "lat": 13.7023232,
          "lng": -89.2012215
        }
      ]
    },
    "Santa Ana": {
      "plane": [],
      "train": [
        {
          "code": "OSM:4330198417",
          "name": "Costa Rica",
          "lat": 20.1806202,
          "lng": -75.4196341
        },
        {
          "code": "OSM:513728850",
          "name": "Costa Rica",
          "lat": 20.1806849,
          "lng": -75.4196692
        },
        {
          "code": "OSM:443130350",
          "name": "Estación de Tren FENADESAL",
          "lat": 13.7010139,
          "lng": -89.1760131
        },
        {
          "code": "OSM:8790820",
          "name": "FENADESAL",
          "lat": 13.7014013,
          "lng": -89.1758166
        }
      ],
      "bus": [
        {
          "code": "OSM:9710266417",
          "name": "Bus a Santa Rosa $1",
          "lat": 13.5978626,
          "lng": -87.7694648
        },
        {
          "code": "OSM:4694356592",
          "name": "Bus La Vencedora (a Cerdo Verde/volcán Santa Ana )",
          "lat": 13.9913325,
          "lng": -89.56456
        },
        {
          "code": "OSM:12138446025",
          "name": "Buses a Amapalita",
          "lat": 13.3346154,
          "lng": -87.8425873
        },
        {
          "code": "OSM:7055774221",
          "name": "el desvio/ el paraiso",
          "lat": 14.0955847,
          "lng": -89.0729924
        },
        {
          "code": "OSM:9900204917",
          "name": "Número 424  Santa Ana",
          "lat": 13.8798392,
          "lng": -89.5634498
        },
        {
          "code": "OSM:12801030259",
          "name": "Parada de bus la avenida",
          "lat": 13.6100838,
          "lng": -89.1780811
        },
        {
          "code": "OSM:12801056157",
          "name": "Parada El Amate",
          "lat": 13.6090157,
          "lng": -89.1772701
        },
        {
          "code": "OSM:2704105876",
          "name": "Punto 46",
          "lat": 13.7335717,
          "lng": -89.2252473
        },
        {
          "code": "OSM:6540863151",
          "name": "Punto Buses Ruta 42-A",
          "lat": 13.6802293,
          "lng": -89.2787223
        },
        {
          "code": "OSM:4331348190",
          "name": "Punto de autobúses de la Ruta 9",
          "lat": 13.6965083,
          "lng": -89.1689582
        },
        {
          "code": "OSM:5265678222",
          "name": "Punto de Ruta #17 - Panchimalco",
          "lat": 13.6952105,
          "lng": -89.1920332
        },
        {
          "code": "OSM:4343887457",
          "name": "Punto de Ruta 138",
          "lat": 13.6961472,
          "lng": -89.1907474
        },
        {
          "code": "OSM:437106573",
          "name": "Punto de Ruta 140",
          "lat": 13.6979624,
          "lng": -89.1881747
        },
        {
          "code": "OSM:4450005989",
          "name": "Punto Ruta 13",
          "lat": 13.690338,
          "lng": -89.1321179
        },
        {
          "code": "OSM:3813979366",
          "name": "Punto Ruta 44",
          "lat": 13.7509724,
          "lng": -89.2037986
        },
        {
          "code": "OSM:10045995220",
          "name": "Ruta 1. Hacia Cantón Las Ánimas",
          "lat": 13.7246401,
          "lng": -88.9335856
        },
        {
          "code": "OSM:5816506279",
          "name": "Ruta 208",
          "lat": 13.7463937,
          "lng": -89.5003152
        },
        {
          "code": "OSM:11369719849",
          "name": "Ruta 22",
          "lat": 13.7076538,
          "lng": -89.2023186
        },
        {
          "code": "OSM:1985784918",
          "name": "Ruta 4",
          "lat": 13.7248965,
          "lng": -89.1669976
        },
        {
          "code": "OSM:5745959737",
          "name": "Taxis Acacya",
          "lat": 13.701978,
          "lng": -89.201247
        },
        {
          "code": "OSM:458894283",
          "name": "Terminal de Buses Interdepartamentales",
          "lat": 13.927565,
          "lng": -89.8390002
        },
        {
          "code": "OSM:5506560021",
          "name": "Terminals buses Francisco lara pineda",
          "lat": 13.9876499,
          "lng": -89.5636267
        }
      ]
    },
    "La Libertad": {
      "plane": [],
      "train": [],
      "bus": [
        {
          "code": "OSM:1182775939",
          "name": "BUSES 165, RUTA SAN JOSE LOS SITIOS TALNIQUE LA LIBERTAD, LADO ATEOS",
          "lat": 13.7061178,
          "lng": -89.4095497
        },
        {
          "code": "OSM:4244826645",
          "name": "PARADA DE RUTA 383",
          "lat": 13.3349983,
          "lng": -87.8434076
        },
        {
          "code": "OSM:5379626132",
          "name": "Punta de buses ruta 102",
          "lat": 13.6953246,
          "lng": -89.2004672
        },
        {
          "code": "OSM:6522223840",
          "name": "Punto Buses Ruta 101B",
          "lat": 13.6820345,
          "lng": -89.3130833
        },
        {
          "code": "OSM:696219581",
          "name": "Punto Buses Ruta 101B",
          "lat": 13.6847749,
          "lng": -89.3031071
        },
        {
          "code": "OSM:6537582228",
          "name": "Punto Buses Ruta 97",
          "lat": 13.6815407,
          "lng": -89.3085864
        },
        {
          "code": "OSM:696495864",
          "name": "Punto de Buses Ruta 101A",
          "lat": 13.6728545,
          "lng": -89.2995388
        },
        {
          "code": "OSM:809150964",
          "name": "Punto de Buses Ruta 2",
          "lat": 13.7276186,
          "lng": -89.1879053
        },
        {
          "code": "OSM:1655468123",
          "name": "Punto de buses ruta 2C",
          "lat": 13.7314576,
          "lng": -89.186742
        },
        {
          "code": "OSM:4272635696",
          "name": "Punto de Buses Ruta 30",
          "lat": 13.7294339,
          "lng": -89.218019
        },
        {
          "code": "OSM:1184933734",
          "name": "Punto de Buses Ruta 42C",
          "lat": 13.6907108,
          "lng": -89.2698223
        },
        {
          "code": "OSM:1999531237",
          "name": "Punto de buses Ruta 48",
          "lat": 13.6922986,
          "lng": -89.1750885
        },
        {
          "code": "OSM:446920900",
          "name": "Punto de Buses Ruta 52",
          "lat": 13.7024733,
          "lng": -89.1730302
        },
        {
          "code": "OSM:11365535804",
          "name": "Punto de Buses Ruta 6",
          "lat": 13.7854102,
          "lng": -89.1786014
        },
        {
          "code": "OSM:5568322112",
          "name": "Punto de Buses ruta 8A",
          "lat": 13.6977892,
          "lng": -89.2264169
        },
        {
          "code": "OSM:1999532550",
          "name": "Punto de microbuses ruta 48",
          "lat": 13.6909279,
          "lng": -89.1748069
        },
        {
          "code": "OSM:4272635695",
          "name": "Punto microbuses ruta 46",
          "lat": 13.7322203,
          "lng": -89.2190524
        },
        {
          "code": "OSM:10034726936",
          "name": "Terminal de Autobuses Ruta 186 & 186B",
          "lat": 13.7199681,
          "lng": -88.933555
        },
        {
          "code": "OSM:5555320621",
          "name": "Terminal de buses Puerto Parada",
          "lat": 13.3440125,
          "lng": -88.431915
        },
        {
          "code": "OSM:1353084235",
          "name": "Terminal de Buses Ruta 234",
          "lat": 13.9860196,
          "lng": -89.6772155
        },
        {
          "code": "OSM:6275360",
          "name": "Terminal de Buses Ruta 234",
          "lat": 13.9860354,
          "lng": -89.6772147
        },
        {
          "code": "OSM:4320533693",
          "name": "Terminal de Buses Ruta 30601",
          "lat": 13.9299857,
          "lng": -89.0353429
        },
        {
          "code": "OSM:10281103892",
          "name": "Terminal de buses ruta 49",
          "lat": 13.7338031,
          "lng": -89.1316343
        },
        {
          "code": "OSM:1076870229",
          "name": "Terminal ruta 31",
          "lat": 13.6892576,
          "lng": -89.1590729
        },
        {
          "code": "OSM:10278395350",
          "name": "terminal ruta 41 D",
          "lat": 13.7287134,
          "lng": -89.1427299
        },
        {
          "code": "OSM:12777251298",
          "name": "Transporte: El Nispero - El Rosario",
          "lat": 13.8986107,
          "lng": -89.9295891
        }
      ]
    },
    "Ahuachapán": {
      "plane": [],
      "train": [
        {
          "code": "OSM:554171483",
          "name": "Antigua Estación de Ferrocarriles de Ahuachapán",
          "lat": 13.9268172,
          "lng": -89.850937
        }
      ],
      "bus": []
    },
    "Usulután": {
      "plane": [],
      "train": [],
      "bus": []
    },
    "Sonsonate": {
      "plane": [],
      "train": [],
      "bus": [
        {
          "code": "OSM:6260952785",
          "name": "Bus station for Sonsonate",
          "lat": 13.8574087,
          "lng": -90.0855993
        },
        {
          "code": "OSM:5612904321",
          "name": "King Quality",
          "lat": 13.9729823,
          "lng": -89.5847747
        },
        {
          "code": "OSM:1145027638",
          "name": "R252 Acajutla-Sonsonate",
          "lat": 13.712262,
          "lng": -89.7180441
        },
        {
          "code": "OSM:539778295",
          "name": "Seccion de abordaje de buses a Sonsonate",
          "lat": 13.6938903,
          "lng": -89.2197453
        },
        {
          "code": "OSM:5339185521",
          "name": "Sonsonate Bus 1.30pm",
          "lat": 13.4890797,
          "lng": -89.3196978
        },
        {
          "code": "OSM:1115389759",
          "name": "Terminal Vieja de Sonsonate",
          "lat": 13.7155092,
          "lng": -89.721878
        }
      ]
    },
    "La Paz": {
      "plane": [],
      "train": [],
      "bus": [
        {
          "code": "OSM:5864506985",
          "name": "108",
          "lat": 13.8293992,
          "lng": -89.3567796
        },
        {
          "code": "OSM:5873558586",
          "name": "R4T",
          "lat": 13.6974864,
          "lng": -89.2107482
        },
        {
          "code": "OSM:5873558587",
          "name": "To Such",
          "lat": 13.9607204,
          "lng": -89.1830289
        }
      ]
    },
    "Cabañas": {
      "plane": [],
      "train": [
        {
          "code": "OSM:3406659237",
          "name": "Cuneira",
          "lat": 20.2267231,
          "lng": -75.3588201
        }
      ],
      "bus": []
    },
    "San Vicente": {
      "plane": [],
      "train": [],
      "bus": [
        {
          "code": "OSM:6698266985",
          "name": "bus 3 del centro",
          "lat": 13.7138252,
          "lng": -89.1975851
        },
        {
          "code": "OSM:6793975659",
          "name": "Desvio a San Vicente",
          "lat": 13.6690424,
          "lng": -88.7961623
        },
        {
          "code": "OSM:383398240",
          "name": "Terminal de Buses de Occidente",
          "lat": 13.9877028,
          "lng": -89.5635149
        },
        {
          "code": "OSM:459658721",
          "name": "Terminal de Buses de Occidente",
          "lat": 13.6935696,
          "lng": -89.2192537
        },
        {
          "code": "OSM:616399558",
          "name": "Terminal de Buses Sensuntepeque",
          "lat": 13.8707739,
          "lng": -88.6274023
        },
        {
          "code": "OSM:379469708",
          "name": "Terminal de Oriente",
          "lat": 13.3433536,
          "lng": -88.429438
        }
      ]
    },
    "Cuscatlán": {
      "plane": [],
      "train": [],
      "bus": [
        {
          "code": "OSM:3700467029",
          "name": "Bus Station",
          "lat": 14.3307713,
          "lng": -89.4417591
        },
        {
          "code": "OSM:379771457",
          "name": "Terminal de Buses de Zacatecoluca",
          "lat": 13.5050177,
          "lng": -88.8709085
        }
      ]
    },
    "La Unión": {
      "plane": [],
      "train": [
        {
          "code": "OSM:845524445",
          "name": "La Estación",
          "lat": 13.8069691,
          "lng": -89.2297487
        }
      ],
      "bus": []
    },
    "Chalatenango": {
      "plane": [],
      "train": [],
      "bus": [
        {
          "code": "OSM:1215703609",
          "name": "Terminal de buses de san Juan Opico",
          "lat": 13.8755851,
          "lng": -89.3609201
        },
        {
          "code": "OSM:983366114",
          "name": "Terminal de Oriente Nuevo Amanecer",
          "lat": 13.6957779,
          "lng": -89.1396813
        }
      ]
    },
    "Morazán": {
      "plane": [],
      "train": [],
      "bus": [
        {
          "code": "OSM:9900189518",
          "name": "Numero 248",
          "lat": 13.8350887,
          "lng": -89.6236145
        }
      ]
    }
  },
  "meta": {
    "source": {
      "airports": "OurAirports (airports.csv, filtered: scheduled_service=yes, civil)",
      "train": "OpenStreetMap (railway=station/public_transport=station train=yes)",
      "bus": "OpenStreetMap (amenity=bus_station/public_transport=station bus=yes)"
    },
    "generatedAt": "2025-09-02T08:35:54.737Z"
  }
}