{
  "code": "UY",
  "name": "Uruguay",
  "cities": {
    "Montevideo": {
      "plane": [],
      "train": [
        {
          "code": "OSM:233026933",
          "name": "Montevideo Nueva Terminal",
          "lat": -34.8939538,
          "lng": -56.1948938
        }
      ],
      "bus": [
        {
          "code": "OSM:342855718",
          "name": "Intercambiador Belloni",
          "lat": -34.855345,
          "lng": -56.1325575
        },
        {
          "code": "OSM:254435584",
          "name": "Mercedes Terminal",
          "lat": -33.2573512,
          "lng": -58.0280997
        }
      ]
    },
    "Maldonado": {
      "plane": [
        {
          "code": "SUPE",
          "name": "El Jagüel / Punta del Este Airport",
          "lat": -34.909716,
          "lng": -54.920212
        }
      ],
      "train": [
        {
          "code": "OSM:1242584499",
          "name": "25 de Agosto",
          "lat": -34.4152522,
          "lng": -56.3962356
        },
        {
          "code": "OSM:1076403607",
          "name": "Casilla Abandonada",
          "lat": -32.9187664,
          "lng": -54.9285778
        }
      ],
      "bus": [
        {
          "code": "OSM:5423633822",
          "name": "Salida Bello Horizonte",
          "lat": -34.7680882,
          "lng": -55.6414802
        },
        {
          "code": "OSM:6315514585",
          "name": "Terminal de Cabo Polonio",
          "lat": -34.3823849,
          "lng": -53.8436925
        },
        {
          "code": "OSM:298594664",
          "name": "Terminal de Omnibus Carlos Gardel",
          "lat": -31.7132326,
          "lng": -55.9725426
        },
        {
          "code": "OSM:1953732984",
          "name": "Terminal de Omnibus Florida",
          "lat": -34.1007031,
          "lng": -56.216334
        },
        {
          "code": "OSM:197229804",
          "name": "Terminal de Omnibus La Paloma",
          "lat": -34.6567601,
          "lng": -54.1594646
        },
        {
          "code": "OSM:1683192195",
          "name": "Terminal de Omnibus Maldonado",
          "lat": -34.9169557,
          "lng": -54.9578871
        },
        {
          "code": "OSM:197295731",
          "name": "Terminal de Omnibus San Carlos",
          "lat": -34.7934851,
          "lng": -54.9231566
        },
        {
          "code": "OSM:10830872621",
          "name": "Terminal de Rio Branco",
          "lat": -32.5809869,
          "lng": -53.3773394
        }
      ]
    },
    "Canelones": {
      "plane": [
        {
          "code": "PDP",
          "name": "Capitan Corbeta CA Curbelo International Airport",
          "lat": -34.855099,
          "lng": -55.094299
        },
        {
          "code": "MVD",
          "name": "Carrasco General Cesáreo L. Berisso International Airport",
          "lat": -34.835647,
          "lng": -56.026497
        }
      ],
      "train": [
        {
          "code": "OSM:5966918283",
          "name": "Canelones",
          "lat": -34.5344987,
          "lng": -56.2813701
        },
        {
          "code": "OSM:10775047659",
          "name": "Laureles",
          "lat": -31.3628065,
          "lng": -55.8726905
        }
      ],
      "bus": [
        {
          "code": "OSM:2775072335",
          "name": "Nuñez TyT",
          "lat": -33.2311724,
          "lng": -54.3878862
        }
      ]
    },
    "Salto": {
      "plane": [],
      "train": [
        {
          "code": "OSM:11660981252",
          "name": "Juanicó",
          "lat": -34.5944101,
          "lng": -56.250508
        }
      ],
      "bus": [
        {
          "code": "OSM:5315826422",
          "name": "Berrutti",
          "lat": -33.9984758,
          "lng": -58.2850537
        },
        {
          "code": "OSM:432462590",
          "name": "Cita",
          "lat": -34.5243684,
          "lng": -56.2823819
        },
        {
          "code": "OSM:6791584885",
          "name": "Estación",
          "lat": -34.7764872,
          "lng": -55.228291
        }
      ]
    },
    "Paysandú": {
      "plane": [],
      "train": [
        {
          "code": "OSM:6176901549",
          "name": "Paso Ataques",
          "lat": -31.0932563,
          "lng": -55.6857705
        },
        {
          "code": "OSM:6175719341",
          "name": "Paso Tranqueras",
          "lat": -31.1900536,
          "lng": -55.7695044
        }
      ],
      "bus": [
        {
          "code": "OSM:470907939",
          "name": "Paysandu Shopping Terminal",
          "lat": -32.3217334,
          "lng": -58.0703391
        }
      ]
    },
    "Rivera": {
      "plane": [],
      "train": [
        {
          "code": "OSM:6176901550",
          "name": "Rivera",
          "lat": -30.9030136,
          "lng": -55.5455885
        }
      ],
      "bus": [
        {
          "code": "OSM:2376327445",
          "name": "Codesa",
          "lat": -34.7921371,
          "lng": -54.9099415
        },
        {
          "code": "OSM:234913331",
          "name": "CODESA",
          "lat": -34.8932213,
          "lng": -54.9524612
        },
        {
          "code": "OSM:4407686501",
          "name": "Garage Turil",
          "lat": -30.8904507,
          "lng": -55.5493849
        },
        {
          "code": "OSM:5559329771",
          "name": "Intertür",
          "lat": -33.99738,
          "lng": -58.2852114
        }
      ]
    },
    "Tacuarembó": {
      "plane": [],
      "train": [
        {
          "code": "OSM:6175111134",
          "name": "Tacuarembó",
          "lat": -31.7189197,
          "lng": -55.9742912
        }
      ],
      "bus": []
    },
    "Cerro Largo": {
      "plane": [],
      "train": [],
      "bus": [
        {
          "code": "OSM:332130134",
          "name": "Terminal Colón",
          "lat": -34.7995417,
          "lng": -56.222364
        }
      ]
    },
    "Soriano": {
      "plane": [],
      "train": [],
      "bus": []
    },
    "Artigas": {
      "plane": [],
      "train": [],
      "bus": [
        {
          "code": "OSM:2748137569",
          "name": "Terminal",
          "lat": -32.364399,
          "lng": -54.1662357
        }
      ]
    },
    "Lavalleja": {
      "plane": [],
      "train": [],
      "bus": [
        {
          "code": "OSM:6058897386",
          "name": "Rutas del Plata",
          "lat": -32.5930196,
          "lng": -53.3843724
        }
      ]
    },
    "San José": {
      "plane": [],
      "train": [],
      "bus": []
    },
    "Durazno": {
      "plane": [],
      "train": [],
      "bus": [
        {
          "code": "OSM:5457603637",
          "name": "Tur-Este",
          "lat": -33.2323473,
          "lng": -54.3874892
        },
        {
          "code": "OSM:5457600112",
          "name": "TurEste",
          "lat": -33.6743263,
          "lng": -54.2071947
        }
      ]
    },
    "Florida": {
      "plane": [],
      "train": [],
      "bus": []
    },
    "Colonia": {
      "plane": [],
      "train": [],
      "bus": []
    },
    "Treinta y Tres": {
      "plane": [],
      "train": [],
      "bus": [
        {
          "code": "OSM:2997013450",
          "name": "Agencia Central",
          "lat": -34.0031673,
          "lng": -57.6449863
        },
        {
          "code": "OSM:1599484721",
          "name": "Estación Parque Nacional de Santa Teresa",
          "lat": -33.9986963,
          "lng": -53.5670097
        },
        {
          "code": "OSM:247552784",
          "name": "Grupo Agencia Central - Agencia Bortagaray",
          "lat": -31.3889559,
          "lng": -57.9575828
        },
        {
          "code": "OSM:5457600109",
          "name": "Nuñez Transporte y Turismo",
          "lat": -32.594075,
          "lng": -53.3838666
        },
        {
          "code": "OSM:38742656",
          "name": "Terminal Baltasar Brum",
          "lat": -34.9003333,
          "lng": -56.1979123
        },
        {
          "code": "OSM:2164443439",
          "name": "Terminal Daymán",
          "lat": -31.4547438,
          "lng": -57.9107249
        },
        {
          "code": "OSM:5469702205",
          "name": "Terminal de omnibus",
          "lat": -34.4882546,
          "lng": -54.3239889
        },
        {
          "code": "OSM:2080504470",
          "name": "Terminal de Omnibus",
          "lat": -34.0368421,
          "lng": -53.5619648
        },
        {
          "code": "OSM:583783913",
          "name": "Terminal de Omnibus",
          "lat": -34.03671,
          "lng": -53.5617529
        },
        {
          "code": "OSM:5343135011",
          "name": "Terminal de ómnibus",
          "lat": -34.2741372,
          "lng": -53.783489
        },
        {
          "code": "OSM:70521190",
          "name": "Terminal de ómnibus",
          "lat": -34.9570375,
          "lng": -54.9389734
        },
        {
          "code": "OSM:10861480481",
          "name": "Terminal de Ómnibus",
          "lat": -34.3689158,
          "lng": -55.237391
        },
        {
          "code": "OSM:11159841290",
          "name": "Terminal de Ómnibus",
          "lat": -34.861443,
          "lng": -55.2748695
        },
        {
          "code": "OSM:178905267",
          "name": "Terminal de Ómnibus",
          "lat": -34.4726493,
          "lng": -57.8426774
        },
        {
          "code": "OSM:469745846",
          "name": "Terminal de Ómnibus",
          "lat": -31.3839941,
          "lng": -57.9446803
        },
        {
          "code": "OSM:1387725641",
          "name": "Terminal de ómnibus \"Angelita Visconti de Miraglia\"",
          "lat": -34.1968168,
          "lng": -53.8501529
        },
        {
          "code": "OSM:310996292",
          "name": "Terminal de Ómnibus de Rivera",
          "lat": -30.8993901,
          "lng": -55.5416898
        },
        {
          "code": "OSM:436325186",
          "name": "Terminal de Ómnibus General Artigas",
          "lat": -30.4050556,
          "lng": -56.4648102
        },
        {
          "code": "OSM:1271775612",
          "name": "Terminal de Paso de Los Toros",
          "lat": -32.8076988,
          "lng": -56.5117752
        },
        {
          "code": "OSM:1076365265",
          "name": "Terminal de Santa Clara del Olimar",
          "lat": -32.9226126,
          "lng": -54.9515746
        },
        {
          "code": "OSM:305414558",
          "name": "Terminal del Cerro",
          "lat": -34.8734582,
          "lng": -56.2496051
        },
        {
          "code": "OSM:255168570",
          "name": "Terminal Fray Bentos",
          "lat": -33.1234215,
          "lng": -58.3045047
        },
        {
          "code": "OSM:4152531490",
          "name": "Terminal José Enrique Rodó Durazno",
          "lat": -33.3878119,
          "lng": -56.5283385
        },
        {
          "code": "OSM:7154797885",
          "name": "Terminal La Pedrera",
          "lat": -34.5920334,
          "lng": -54.1327673
        },
        {
          "code": "OSM:11062559860",
          "name": "Terminal Plaza España",
          "lat": -34.9096369,
          "lng": -56.201515
        },
        {
          "code": "OSM:156742948",
          "name": "Terminal Portones",
          "lat": -34.882149,
          "lng": -56.0832881
        },
        {
          "code": "OSM:3768979139",
          "name": "Terminal Rutas del Sol Valizas",
          "lat": -34.3359257,
          "lng": -53.7976658
        },
        {
          "code": "OSM:56393958",
          "name": "Terminal Tres Cruces",
          "lat": -34.8938457,
          "lng": -56.1664802
        }
      ]
    },
    "Rocha": {
      "plane": [],
      "train": [
        {
          "code": "OSM:9187380872",
          "name": "Francia",
          "lat": -32.545627,
          "lng": -56.6235479
        }
      ],
      "bus": [
        {
          "code": "OSM:447149947",
          "name": "Copsa",
          "lat": -34.7508704,
          "lng": -55.7093094
        }
      ]
    },
    "Río Negro": {
      "plane": [],
      "train": [
        {
          "code": "OSM:6175190893",
          "name": "Paso del Cerro",
          "lat": -31.4752978,
          "lng": -55.8337711
        }
      ],
      "bus": [
        {
          "code": "OSM:10080344556",
          "name": "Rutas del Sol",
          "lat": -33.7554162,
          "lng": -53.3889891
        }
      ]
    },
    "Flores": {
      "plane": [],
      "train": [
        {
          "code": "OSM:5966464556",
          "name": "Progreso",
          "lat": -34.6673624,
          "lng": -56.2170622
        },
        {
          "code": "OSM:886799488",
          "name": "Tambores",
          "lat": -31.8777401,
          "lng": -56.241638
        }
      ],
      "bus": []
    }
  },
  "meta": {
    "source": {
      "airports": "OurAirports (airports.csv, filtered: scheduled_service=yes, civil)",
      "train": "OpenStreetMap (railway=station/public_transport=station train=yes)",
      "bus": "OpenStreetMap (amenity=bus_station/public_transport=station bus=yes)"
    },
    "generatedAt": "2025-09-02T08:33:59.121Z"
  }
}