{
  "code": "ZW",
  "name": "Zimbabwe",
  "cities": {
    "Harare": {
      "plane": [
        {
          "code": "HRE",
          "name": "Robert Gabriel Mugabe International Airport",
          "lat": -17.931801,
          "lng": 31.0928
        }
      ],
      "train": [
        {
          "code": "OSM:11153425443",
          "name": "Banket",
          "lat": -17.3910697,
          "lng": 30.3892981
        },
        {
          "code": "OSM:11176559057",
          "name": "Beitbridge",
          "lat": -22.1905618,
          "lng": 30.0136075
        },
        {
          "code": "OSM:11150774805",
          "name": "Bindura",
          "lat": -17.3097002,
          "lng": 31.3274433
        },
        {
          "code": "OSM:3909986933",
          "name": "Chartsworth",
          "lat": -19.6311669,
          "lng": 30.8338987
        },
        {
          "code": "OSM:11155692908",
          "name": "Chegutu",
          "lat": -18.137116,
          "lng": 30.1357256
        },
        {
          "code": "OSM:11153297607",
          "name": "Chinhoyi",
          "lat": -17.3724178,
          "lng": 30.1838845
        },
        {
          "code": "OSM:10264847134",
          "name": "Deka",
          "lat": -18.3477934,
          "lng": 26.3687555
        },
        {
          "code": "OSM:10264847127",
          "name": "Dete",
          "lat": -18.6225523,
          "lng": 26.8587406
        },
        {
          "code": "OSM:10264847137",
          "name": "Dibangombe",
          "lat": -18.1883981,
          "lng": 25.8742171
        },
        {
          "code": "OSM:10264847129",
          "name": "Entuba",
          "lat": -18.4172108,
          "lng": 26.5341391
        },
        {
          "code": "OSM:300751104",
          "name": "Fairfield",
          "lat": -19.3804828,
          "lng": 30.5686114
        },
        {
          "code": "OSM:770212784",
          "name": "Figtree",
          "lat": -20.3738601,
          "lng": 28.3231983
        },
        {
          "code": "OSM:307820913",
          "name": "Glendale",
          "lat": -17.3577888,
          "lng": 31.0594048
        },
        {
          "code": "OSM:10264847122",
          "name": "Grants",
          "lat": -19.5200106,
          "lng": 27.9493789
        },
        {
          "code": "OSM:770212554",
          "name": "Gwaai",
          "lat": -19.2924631,
          "lng": 27.7085398
        },
        {
          "code": "OSM:11162488317",
          "name": "Gweru",
          "lat": -19.4589234,
          "lng": 29.8080252
        },
        {
          "code": "OSM:9243653549",
          "name": "Harare",
          "lat": -17.8350672,
          "lng": 31.0522153
        },
        {
          "code": "OSM:11174582374",
          "name": "Heany",
          "lat": -20.0817013,
          "lng": 28.7856729
        },
        {
          "code": "OSM:10264847138",
          "name": "Hwange",
          "lat": -18.348731,
          "lng": 26.5237805
        },
        {
          "code": "OSM:3909986934",
          "name": "Indiva",
          "lat": -19.41463,
          "lng": 30.0432163
        },
        {
          "code": "OSM:7261654227",
          "name": "Ingusi",
          "lat": -19.6578072,
          "lng": 28.0754024
        },
        {
          "code": "OSM:10264847124",
          "name": "Ingwe",
          "lat": -19.0490207,
          "lng": 27.4000192
        },
        {
          "code": "OSM:10264847128",
          "name": "Inyantue",
          "lat": -18.5599611,
          "lng": 26.6657305
        },
        {
          "code": "OSM:919473189",
          "name": "Jafuta",
          "lat": -18.0058778,
          "lng": 25.7798978
        },
        {
          "code": "OSM:1822500231",
          "name": "Kadoma",
          "lat": -18.3400439,
          "lng": 29.9142026
        },
        {
          "code": "OSM:6157433807",
          "name": "Kennedy",
          "lat": -18.8626446,
          "lng": 27.1628976
        },
        {
          "code": "OSM:11159043531",
          "name": "Kwekwe",
          "lat": -18.9311996,
          "lng": 29.8320837
        },
        {
          "code": "OSM:2879669291",
          "name": "Lukosi",
          "lat": -18.4974645,
          "lng": 26.4967067
        },
        {
          "code": "OSM:11309844540",
          "name": "Luveve",
          "lat": -20.097977,
          "lng": 28.5079741
        },
        {
          "code": "OSM:11145748278",
          "name": "Macheke",
          "lat": -18.1431383,
          "lng": 31.8407813
        },
        {
          "code": "OSM:6216157534",
          "name": "Mambanje",
          "lat": -18.5561788,
          "lng": 26.7747085
        },
        {
          "code": "OSM:2243568856",
          "name": "Marondera",
          "lat": -18.1875667,
          "lng": 31.5462835
        },
        {
          "code": "OSM:11309863677",
          "name": "Marula",
          "lat": -20.4738625,
          "lng": 28.0887254
        },
        {
          "code": "OSM:10264847133",
          "name": "Masuwe",
          "lat": -18.0882407,
          "lng": 25.7591315
        },
        {
          "code": "OSM:919476145",
          "name": "Matetsi",
          "lat": -18.2758074,
          "lng": 25.9467644
        },
        {
          "code": "OSM:11171892582",
          "name": "Mbizi",
          "lat": -21.391549,
          "lng": 31.0072306
        },
        {
          "code": "OSM:10264847136",
          "name": "Mubiya",
          "lat": -18.1184442,
          "lng": 25.8144622
        },
        {
          "code": "OSM:11158688336",
          "name": "Munyati",
          "lat": -18.656875,
          "lng": 29.7824103
        },
        {
          "code": "OSM:1478989206",
          "name": "Mutare",
          "lat": -18.9840802,
          "lng": 32.6633108
        },
        {
          "code": "OSM:3909986936",
          "name": "Mvuma",
          "lat": -19.2795274,
          "lng": 30.5275437
        },
        {
          "code": "OSM:10264847131",
          "name": "Ngamo",
          "lat": -19.1210736,
          "lng": 27.4915643
        },
        {
          "code": "OSM:11155575285",
          "name": "Norton",
          "lat": -17.8925779,
          "lng": 30.6909098
        },
        {
          "code": "OSM:12347802041",
          "name": "NRZ",
          "lat": -17.3722209,
          "lng": 30.1838107
        },
        {
          "code": "OSM:11152662239",
          "name": "Nyabira",
          "lat": -17.6750732,
          "lng": 30.8079681
        },
        {
          "code": "OSM:11143738770",
          "name": "Nyazura",
          "lat": -18.7137744,
          "lng": 32.1650543
        },
        {
          "code": "OSM:11143733074",
          "name": "Odzi",
          "lat": -18.9610724,
          "lng": 32.392303
        },
        {
          "code": "OSM:770212953",
          "name": "Plumtree",
          "lat": -20.4890244,
          "lng": 27.8076845
        },
        {
          "code": "OSM:1822994245",
          "name": "Rusape",
          "lat": -18.5335693,
          "lng": 32.1225065
        },
        {
          "code": "OSM:770212662",
          "name": "Sawmill",
          "lat": -19.582856,
          "lng": 28.0388082
        },
        {
          "code": "OSM:11150774713",
          "name": "Shamva",
          "lat": -17.317014,
          "lng": 31.5619938
        },
        {
          "code": "OSM:11173768601",
          "name": "Shangani",
          "lat": -19.7790598,
          "lng": 29.3686979
        },
        {
          "code": "OSM:11171961328",
          "name": "Somabhula",
          "lat": -19.6971781,
          "lng": 29.6634357
        },
        {
          "code": "OSM:11174714773",
          "name": "Stanmore",
          "lat": -20.6625629,
          "lng": 29.0258119
        },
        {
          "code": "OSM:4883834994",
          "name": "Umgusa",
          "lat": -19.4350176,
          "lng": 27.8612524
        },
        {
          "code": "OSM:919476390",
          "name": "Zanguja",
          "lat": -18.3185114,
          "lng": 26.219134
        },
        {
          "code": "OSM:11167188254",
          "name": "Zimuto",
          "lat": -19.8597195,
          "lng": 30.8565443
        }
      ],
      "bus": [
        {
          "code": "OSM:6457613685",
          "name": "22miles",
          "lat": -19.2663732,
          "lng": 32.5856339
        },
        {
          "code": "OSM:12840050801",
          "name": "a",
          "lat": -17.8670886,
          "lng": 30.8712091
        },
        {
          "code": "OSM:6687205591",
          "name": "Chiredzi Turnoff",
          "lat": -20.1160073,
          "lng": 32.4509754
        },
        {
          "code": "OSM:7924676385",
          "name": "Cowdray Park Terminus",
          "lat": -20.0801959,
          "lng": 28.5109457
        },
        {
          "code": "OSM:11669285769",
          "name": "Extra City",
          "lat": -17.8287454,
          "lng": 31.0280796
        },
        {
          "code": "OSM:5380661899",
          "name": "Extracity",
          "lat": -20.141121,
          "lng": 28.5826061
        },
        {
          "code": "OSM:7279913186",
          "name": "Inter Africa",
          "lat": -20.1501596,
          "lng": 28.5872066
        },
        {
          "code": "OSM:5338942221",
          "name": "Intercape office",
          "lat": -20.1494621,
          "lng": 28.5812696
        },
        {
          "code": "OSM:6687205289",
          "name": "Joppa",
          "lat": -20.087526,
          "lng": 32.6470589
        },
        {
          "code": "OSM:5890511288",
          "name": "Mahuwe",
          "lat": -16.3883967,
          "lng": 30.7382326
        },
        {
          "code": "OSM:335737189",
          "name": "Mandava",
          "lat": -20.3055494,
          "lng": 30.0593676
        },
        {
          "code": "OSM:408937261",
          "name": "Market Square",
          "lat": -17.8370215,
          "lng": 31.0420391
        },
        {
          "code": "OSM:6924531285",
          "name": "Mumera",
          "lat": -19.8864785,
          "lng": 32.3904923
        },
        {
          "code": "OSM:4530413989",
          "name": "Nyamhuka 1 Rank",
          "lat": -18.2258903,
          "lng": 32.7389668
        },
        {
          "code": "OSM:7973039283",
          "name": "Pondombiri",
          "lat": -18.6729089,
          "lng": 30.5583925
        },
        {
          "code": "OSM:4269501089",
          "name": "Road Port",
          "lat": -17.8301865,
          "lng": 31.0569517
        },
        {
          "code": "OSM:315786351",
          "name": "Roadport",
          "lat": -17.8301946,
          "lng": 31.0570057
        },
        {
          "code": "OSM:5508528322",
          "name": "Roadport Highglen",
          "lat": -17.8823735,
          "lng": 30.95837
        },
        {
          "code": "OSM:4694703106",
          "name": "Shava Garage",
          "lat": -17.3735038,
          "lng": 30.1991186
        },
        {
          "code": "OSM:12794529302",
          "name": "SHUMBA",
          "lat": -17.8156832,
          "lng": 32.309643
        },
        {
          "code": "OSM:7035208090",
          "name": "Sizenzj Corner",
          "lat": -20.9762824,
          "lng": 28.8608023
        },
        {
          "code": "OSM:6509372286",
          "name": "Wengezi",
          "lat": -19.5074113,
          "lng": 32.5317165
        }
      ]
    },
    "Bulawayo": {
      "plane": [
        {
          "code": "BUQ",
          "name": "Joshua Mqabuko Nkomo International Airport",
          "lat": -20.021254,
          "lng": 28.626296
        }
      ],
      "train": [
        {
          "code": "OSM:11183591226",
          "name": "Buchwa",
          "lat": -20.5783339,
          "lng": 30.3992799
        },
        {
          "code": "OSM:974080920",
          "name": "Bulawayo",
          "lat": -20.1612221,
          "lng": 28.5726983
        },
        {
          "code": "OSM:11152432649",
          "name": "Concession",
          "lat": -17.3934405,
          "lng": 30.9484538
        },
        {
          "code": "OSM:3909988024",
          "name": "Lalapansi",
          "lat": -19.3377244,
          "lng": 30.1778178
        },
        {
          "code": "OSM:11174700611",
          "name": "Mbalabala",
          "lat": -20.4431405,
          "lng": 29.0416175
        },
        {
          "code": "OSM:12347802538",
          "name": "Railway station",
          "lat": -17.3720473,
          "lng": 30.1841306
        },
        {
          "code": "OSM:11143751822",
          "name": "Tsungwezi",
          "lat": -18.8216585,
          "lng": 32.205639
        }
      ],
      "bus": [
        {
          "code": "OSM:6359798785",
          "name": "Chegutu bus station",
          "lat": -18.1265767,
          "lng": 30.1398485
        },
        {
          "code": "OSM:4938857521",
          "name": "Gutu Turnoff",
          "lat": -20.0597106,
          "lng": 31.2099051
        },
        {
          "code": "OSM:4515268705",
          "name": "Pick & Pay shop/Mubaiwa",
          "lat": -20.1472479,
          "lng": 28.5698445
        },
        {
          "code": "OSM:690415773",
          "name": "Unit N Bus Station",
          "lat": -18.0271829,
          "lng": 31.0978092
        }
      ]
    },
    "Manicaland": {
      "plane": [],
      "train": [
        {
          "code": "OSM:11171967916",
          "name": "Bannochburn",
          "lat": -20.2909102,
          "lng": 29.8716366
        },
        {
          "code": "OSM:11174700558",
          "name": "Esigodini",
          "lat": -20.2939191,
          "lng": 28.9373787
        },
        {
          "code": "OSM:11152753536",
          "name": "Maryland",
          "lat": -17.6491288,
          "lng": 30.4904122
        },
        {
          "code": "OSM:7261654228",
          "name": "Nyamandolovu",
          "lat": -19.8638694,
          "lng": 28.2692707
        }
      ],
      "bus": [
        {
          "code": "OSM:541559878",
          "name": "Charge Office Taxi Rank",
          "lat": -17.8341042,
          "lng": 31.0488727
        },
        {
          "code": "OSM:6768926286",
          "name": "Chikanga Sakubva Rank",
          "lat": -18.9801957,
          "lng": 32.6658979
        },
        {
          "code": "OSM:6768926287",
          "name": "Dangamvura Rank",
          "lat": -18.9790624,
          "lng": 32.6657866
        },
        {
          "code": "OSM:11411673770",
          "name": "Eagle Liner",
          "lat": -20.1583143,
          "lng": 28.5859587
        },
        {
          "code": "OSM:414790882",
          "name": "Kudzanai Bus Teminus",
          "lat": -19.4513485,
          "lng": 29.8150062
        },
        {
          "code": "OSM:920240238",
          "name": "Local Minibus Terminus",
          "lat": -20.0745377,
          "lng": 30.8323648
        },
        {
          "code": "OSM:8065215886",
          "name": "Manama turn",
          "lat": -21.5218146,
          "lng": 29.0512718
        },
        {
          "code": "OSM:5767319661",
          "name": "Manica Bridge",
          "lat": -18.7890449,
          "lng": 32.5885416
        },
        {
          "code": "OSM:6687205590",
          "name": "Musani Turn-off",
          "lat": -20.0769225,
          "lng": 32.4368909
        },
        {
          "code": "OSM:1251835012",
          "name": "Nyameni Cherutombo Rank",
          "lat": -18.1902211,
          "lng": 31.5487768
        },
        {
          "code": "OSM:4582467389",
          "name": "Ruza Machapaza",
          "lat": -17.9572517,
          "lng": 29.307795
        },
        {
          "code": "OSM:5288058726",
          "name": "Wajetsi Turnoff",
          "lat": -16.8711842,
          "lng": 29.807078
        }
      ]
    },
    "Midlands": {
      "plane": [
        {
          "code": "VFA",
          "name": "Victoria Falls International Airport",
          "lat": -18.09589958190918,
          "lng": 25.839000701904297
        }
      ],
      "train": [
        {
          "code": "OSM:11174714811",
          "name": "Gwanda",
          "lat": -20.9400899,
          "lng": 29.0073134
        },
        {
          "code": "OSM:2243568892",
          "name": "Headlands",
          "lat": -18.2807829,
          "lng": 32.0516481
        },
        {
          "code": "OSM:6157433808",
          "name": "Inthundla",
          "lat": -18.9765559,
          "lng": 27.3077273
        },
        {
          "code": "OSM:6891643768",
          "name": "Malindi",
          "lat": -18.7477891,
          "lng": 27.017103
        },
        {
          "code": "OSM:770213024",
          "name": "Tshotanda",
          "lat": -18.5371584,
          "lng": 26.6000997
        },
        {
          "code": "OSM:471800894",
          "name": "Victoria Falls",
          "lat": -17.9294597,
          "lng": 25.8409291
        }
      ],
      "bus": [
        {
          "code": "OSM:7835962787",
          "name": "Chiredzi Old Rank bus terminus",
          "lat": -21.0414723,
          "lng": 31.6804578
        },
        {
          "code": "OSM:414789854",
          "name": "teminus",
          "lat": -19.4604289,
          "lng": 29.8130906
        },
        {
          "code": "OSM:4321191493",
          "name": "Terminus",
          "lat": -19.4550551,
          "lng": 29.812785
        },
        {
          "code": "OSM:6924530985",
          "name": "Vision 2020",
          "lat": -19.69351,
          "lng": 32.4520167
        }
      ]
    },
    "Mashonaland West": {
      "plane": [],
      "train": [],
      "bus": [
        {
          "code": "OSM:370210597",
          "name": "Basch Street Terminus",
          "lat": -20.1522131,
          "lng": 28.5780372
        },
        {
          "code": "OSM:1298194246",
          "name": "Chinhoyi main rank (bus terminus)",
          "lat": -17.3734698,
          "lng": 30.1978185
        },
        {
          "code": "OSM:7835962885",
          "name": "Chiredzi New rank bus terminus",
          "lat": -21.0427431,
          "lng": 31.679755
        },
        {
          "code": "OSM:541564208",
          "name": "Copacabana Bus Terminus",
          "lat": -17.8320788,
          "lng": 31.0439012
        },
        {
          "code": "OSM:5806316858",
          "name": "Katanga bus terminus",
          "lat": -17.8816783,
          "lng": 30.6669081
        },
        {
          "code": "OSM:414791140",
          "name": "Kudzanai Bus terminus 1",
          "lat": -19.4509115,
          "lng": 29.8141648
        },
        {
          "code": "OSM:504395539",
          "name": "Sakubva Bus Terminus",
          "lat": -18.9962702,
          "lng": 32.6444149
        }
      ]
    },
    "Matabeleland North": {
      "plane": [],
      "train": [],
      "bus": [
        {
          "code": "OSM:10548327909",
          "name": "Village 9, Kennilworth",
          "lat": -19.3294005,
          "lng": 28.9978644
        }
      ]
    },
    "Mashonaland East": {
      "plane": [],
      "train": [],
      "bus": [
        {
          "code": "OSM:5694600436",
          "name": "Chigodora Chishakwe Penhalonga Rank",
          "lat": -18.97876,
          "lng": 32.6654067
        },
        {
          "code": "OSM:6477498644",
          "name": "Cross boarder Rank",
          "lat": -20.193669,
          "lng": 32.6266381
        },
        {
          "code": "OSM:638733013",
          "name": "Marondera Main rank",
          "lat": -18.1896119,
          "lng": 31.5491807
        },
        {
          "code": "OSM:4734369021",
          "name": "Pick n Pay Taxi Rank",
          "lat": -20.1570914,
          "lng": 28.5796188
        }
      ]
    },
    "Masvingo": {
      "plane": [],
      "train": [
        {
          "code": "OSM:11152669908",
          "name": "Maringove",
          "lat": -17.7142135,
          "lng": 30.5513199
        },
        {
          "code": "OSM:3909986935",
          "name": "Masvingo",
          "lat": -20.0737142,
          "lng": 30.8396618
        },
        {
          "code": "OSM:770212606",
          "name": "Mpindo",
          "lat": -19.2088433,
          "lng": 27.6029332
        }
      ],
      "bus": [
        {
          "code": "OSM:3435482626",
          "name": "Bus Terminal",
          "lat": -18.9797907,
          "lng": 32.6628089
        },
        {
          "code": "OSM:4694703393",
          "name": "Gadzema section",
          "lat": -17.373267,
          "lng": 30.197414
        },
        {
          "code": "OSM:548427856",
          "name": "Gutu Bus Terminus",
          "lat": -19.6390743,
          "lng": 31.1703647
        },
        {
          "code": "OSM:4566328197",
          "name": "Hwange Bus Terminus",
          "lat": -18.3566066,
          "lng": 26.4932703
        },
        {
          "code": "OSM:10694546616",
          "name": "Matondora",
          "lat": -18.398325,
          "lng": 32.947031
        },
        {
          "code": "OSM:579670415",
          "name": "Murewa Bus Terminus",
          "lat": -17.6472383,
          "lng": 31.7778965
        },
        {
          "code": "OSM:5951316085",
          "name": "Musvove",
          "lat": -20.7116727,
          "lng": 30.5803832
        },
        {
          "code": "OSM:4334330396",
          "name": "Renkini",
          "lat": -20.1472664,
          "lng": 28.5735272
        },
        {
          "code": "OSM:4606923435",
          "name": "Sadza Bus Terminal",
          "lat": -18.9012142,
          "lng": 31.4508085
        },
        {
          "code": "OSM:10841406648",
          "name": "UZ bus terminal",
          "lat": -17.780338,
          "lng": 31.0563323
        },
        {
          "code": "OSM:4785962324",
          "name": "Western Triangle",
          "lat": -17.895567,
          "lng": 30.9707907
        }
      ]
    },
    "Matabeleland South": {
      "plane": [],
      "train": [
        {
          "code": "OSM:770212640",
          "name": "Hwange - Thomson Junction",
          "lat": -18.339128,
          "lng": 26.4494499
        }
      ],
      "bus": [
        {
          "code": "OSM:5915557785",
          "name": "Chikangwe Bus Station",
          "lat": -16.8065717,
          "lng": 29.6971246
        }
      ]
    },
    "Mashonaland Central": {
      "plane": [],
      "train": [
        {
          "code": "OSM:11152531818",
          "name": "Mount Hampdon Junction",
          "lat": -17.7477407,
          "lng": 30.9373598
        }
      ],
      "bus": [
        {
          "code": "OSM:5380643203",
          "name": "Chinotimba Bus Terminal",
          "lat": -17.9423882,
          "lng": 25.8271455
        },
        {
          "code": "OSM:5259183821",
          "name": "Gogo Gwada Turnoff via Nyanzira",
          "lat": -19.3409209,
          "lng": 31.4748591
        },
        {
          "code": "OSM:214613004",
          "name": "Mbare Musika Bus Terminal",
          "lat": -17.8599868,
          "lng": 31.0381329
        },
        {
          "code": "OSM:215020684",
          "name": "Mucheke Musika Bus Terminal",
          "lat": -20.078034,
          "lng": 30.8200119
        },
        {
          "code": "OSM:6687205687",
          "name": "Nhedziwa- Chimanimani Turn-off",
          "lat": -19.5059702,
          "lng": 32.5313211
        },
        {
          "code": "OSM:8883498917",
          "name": "Phoenix Business Centre",
          "lat": -20.7568049,
          "lng": 29.6977423
        }
      ]
    }
  },
  "meta": {
    "source": {
      "airports": "OurAirports (airports.csv, filtered: scheduled_service=yes, civil)",
      "train": "OpenStreetMap (railway=station/public_transport=station train=yes)",
      "bus": "OpenStreetMap (amenity=bus_station/public_transport=station bus=yes)"
    },
    "generatedAt": "2025-09-02T08:35:26.008Z"
  }
}